{
  "metadata": {
    "resultset": {
      "offset": 1,
      "count": 494,
      "limit": 1000
    }
  },
  "results": [
    {
      "elevation": 863.5,
      "mindate": "1931-01-01",
      "maxdate": "2013-12-01",
      "latitude": 34.4938,
      "name": "ACTON ESCONDIDO CANYON, CA US",
      "datacoverage": 0.8986,
      "id": "COOP:040014",
      "elevationUnit": "METERS",
      "longitude": -118.2713
    },
    {
      "elevation": 721.5,
      "mindate": "1939-09-01",
      "maxdate": "1992-10-30",
      "latitude": 34.31667,
      "name": "ALISO CANYON FC 446, CA US",
      "datacoverage": 0.9711,
      "id": "COOP:040115",
      "elevationUnit": "METERS",
      "longitude": -118.55
    },
    {
      "elevation": 343.5,
      "mindate": "1931-01-01",
      "maxdate": "2015-11-01",
      "latitude": 34.18211,
      "name": "ALTADENA, CA US",
      "datacoverage": 0.9362,
      "id": "COOP:040144",
      "elevationUnit": "METERS",
      "longitude": -118.13827
    },
    {
      "elevation": 70.7,
      "mindate": "1989-08-01",
      "maxdate": "2015-11-01",
      "latitude": 33.8647,
      "name": "ANAHEIM, CA US",
      "datacoverage": 0.9684,
      "id": "COOP:040192",
      "elevationUnit": "METERS",
      "longitude": -117.8425
    },
    {
      "elevation": 371.9,
      "mindate": "1931-01-01",
      "maxdate": "1974-06-01",
      "latitude": 34.21667,
      "name": "ARROYO SECO RANGER STATION FC508, CA US",
      "datacoverage": 0.9962,
      "id": "COOP:040327",
      "elevationUnit": "METERS",
      "longitude": -118.16667
    },
    {
      "elevation": 103.9,
      "mindate": "1941-11-01",
      "maxdate": "1966-05-01",
      "latitude": 33.9,
      "name": "ASSOC OIL ANAHEIM 1, CA US",
      "datacoverage": 1,
      "id": "COOP:040355",
      "elevationUnit": "METERS",
      "longitude": -117.88333
    },
    {
      "elevation": 185.9,
      "mindate": "1931-01-01",
      "maxdate": "1972-10-01",
      "latitude": 34.13333,
      "name": "AZUSA CITY PK FC 143, CA US",
      "datacoverage": 1,
      "id": "COOP:040410",
      "elevationUnit": "METERS",
      "longitude": -117.9
    },
    {
      "elevation": 177.1,
      "mindate": "1941-11-01",
      "maxdate": "1966-04-01",
      "latitude": 33.93333,
      "name": "BARNESON PARK, CA US",
      "datacoverage": 0.9526,
      "id": "COOP:040509",
      "elevationUnit": "METERS",
      "longitude": -117.85
    },
    {
      "elevation": 164.9,
      "mindate": "1931-01-01",
      "maxdate": "1984-03-01",
      "latitude": 34.08333,
      "name": "BEL AIR FC 10A, CA US",
      "datacoverage": 0.995,
      "id": "COOP:040619",
      "elevationUnit": "METERS",
      "longitude": -118.45
    },
    {
      "elevation": 281,
      "mindate": "1948-01-01",
      "maxdate": "1956-08-01",
      "latitude": 34.2,
      "name": "BELL CANYON PLATT RA, CA US",
      "datacoverage": 1,
      "id": "COOP:040625",
      "elevationUnit": "METERS",
      "longitude": -118.65
    },
    {
      "elevation": 484.9,
      "mindate": "1931-01-01",
      "maxdate": "1980-12-01",
      "latitude": 34.16667,
      "name": "BIG DALTON DAM FC223, CA US",
      "datacoverage": 0.9983,
      "id": "COOP:040758",
      "elevationUnit": "METERS",
      "longitude": -117.81667
    },
    {
      "elevation": 2086.4,
      "mindate": "1931-01-01",
      "maxdate": "1996-11-01",
      "latitude": 34.38333,
      "name": "BIG PINES PARK FC83B, CA US",
      "datacoverage": 0.9886,
      "id": "COOP:040779",
      "elevationUnit": "METERS",
      "longitude": -117.68333
    },
    {
      "elevation": 709,
      "mindate": "1940-01-01",
      "maxdate": "2015-11-01",
      "latitude": 34.29481,
      "name": "BIG TUJUNGA DAM FC46, CA US",
      "datacoverage": 0.9254,
      "id": "COOP:040798",
      "elevationUnit": "METERS",
      "longitude": -118.18849
    },
    {
      "elevation": 220.1,
      "mindate": "1948-01-01",
      "maxdate": "1977-06-01",
      "latitude": 34.18333,
      "name": "BIRMINGHAM GEN HOSPITAL, CA US",
      "datacoverage": 0.9775,
      "id": "COOP:040818",
      "elevationUnit": "METERS",
      "longitude": -118.5
    },
    {
      "elevation": 933,
      "mindate": "1940-07-01",
      "maxdate": "1978-06-01",
      "latitude": 34.58333,
      "name": "BOUQUET CANYON, CA US",
      "datacoverage": 0.9913,
      "id": "COOP:041013",
      "elevationUnit": "METERS",
      "longitude": -118.36667
    },
    {
      "elevation": 107,
      "mindate": "1942-10-01",
      "maxdate": "1959-05-01",
      "latitude": 33.91667,
      "name": "BREA BERRY AND IMPER, CA US",
      "datacoverage": 1,
      "id": "COOP:041054",
      "elevationUnit": "METERS",
      "longitude": -117.9
    },
    {
      "elevation": 116.1,
      "mindate": "1957-06-01",
      "maxdate": "1970-03-01",
      "latitude": 33.93333,
      "name": "BREA CITY SHAFFER TO, CA US",
      "datacoverage": 1,
      "id": "COOP:041056",
      "elevationUnit": "METERS",
      "longitude": -117.9
    },
    {
      "elevation": 83.8,
      "mindate": "1941-11-01",
      "maxdate": "2013-12-19",
      "latitude": 33.8905,
      "name": "BREA DAM, CA US",
      "datacoverage": 1,
      "id": "COOP:041057",
      "elevationUnit": "METERS",
      "longitude": -117.9263
    },
    {
      "elevation": 207,
      "mindate": "1931-01-01",
      "maxdate": "1972-10-01",
      "latitude": 34.18333,
      "name": "BURBANK FIRE DEPARTMENT FC226, CA US",
      "datacoverage": 0.992,
      "id": "COOP:041192",
      "elevationUnit": "METERS",
      "longitude": -118.3
    },
    {
      "elevation": 199.6,
      "mindate": "1940-01-01",
      "maxdate": "2015-11-01",
      "latitude": 34.1866,
      "name": "BURBANK VALLEY PUMP PLANT, CA US",
      "datacoverage": 0.9934,
      "id": "COOP:041194",
      "elevationUnit": "METERS",
      "longitude": -118.348
    },
    {
      "elevation": 1304.8,
      "mindate": "1931-01-01",
      "maxdate": "1958-06-01",
      "latitude": 34.23333,
      "name": "MOUNT BALDY FC 85 G, CA US",
      "datacoverage": 1,
      "id": "COOP:041373",
      "elevationUnit": "METERS",
      "longitude": -117.65
    },
    {
      "elevation": 1296,
      "mindate": "1969-02-01",
      "maxdate": "1978-12-19",
      "latitude": 34.25,
      "name": "OPIDS CAMP FC 57 B E, CA US",
      "datacoverage": 0.9998,
      "id": "COOP:041404",
      "elevationUnit": "METERS",
      "longitude": -118.1
    },
    {
      "elevation": 240.8,
      "mindate": "1949-07-01",
      "maxdate": "2006-06-01",
      "latitude": 34.1819,
      "name": "WOODLAND HILLS PIERCE COLLEGE, CA US",
      "datacoverage": 0.9986,
      "id": "COOP:041484",
      "elevationUnit": "METERS",
      "longitude": -118.5744
    },
    {
      "elevation": 121.9,
      "mindate": "1972-09-01",
      "maxdate": "1977-07-01",
      "latitude": 33.91667,
      "name": "CARBON CANYON DAM, CA US",
      "datacoverage": 0.0221,
      "id": "COOP:041517",
      "elevationUnit": "METERS",
      "longitude": -117.83333
    },
    {
      "elevation": 492.6,
      "mindate": "1955-06-01",
      "maxdate": "2013-12-22",
      "latitude": 33.923,
      "name": "CARBON CANYON GILMAN, CA US",
      "datacoverage": 0.0171,
      "id": "COOP:041518",
      "elevationUnit": "METERS",
      "longitude": -117.7777
    },
    {
      "elevation": 359.7,
      "mindate": "1949-08-01",
      "maxdate": "2001-07-01",
      "latitude": 33.95806,
      "name": "CARBON CANYON WORKMA, CA US",
      "datacoverage": 0.9235,
      "id": "COOP:041520",
      "elevationUnit": "METERS",
      "longitude": -117.77917
    },
    {
      "elevation": 305.1,
      "mindate": "1945-11-01",
      "maxdate": "1959-07-01",
      "latitude": 34.26667,
      "name": "CHATSWORTH HEYNEMANN, CA US",
      "datacoverage": 0.9942,
      "id": "COOP:041679",
      "elevationUnit": "METERS",
      "longitude": -118.6
    },
    {
      "elevation": 289.6,
      "mindate": "1931-01-01",
      "maxdate": "1988-11-01",
      "latitude": 34.25,
      "name": "CHATSWORTH FC 24 F, CA US",
      "datacoverage": 0.9755,
      "id": "COOP:041680",
      "elevationUnit": "METERS",
      "longitude": -118.6
    },
    {
      "elevation": 277.4,
      "mindate": "1948-01-01",
      "maxdate": "2012-12-01",
      "latitude": 34.2263,
      "name": "CHATSWORTH RESERVOIR, CA US",
      "datacoverage": 0.9775,
      "id": "COOP:041682",
      "elevationUnit": "METERS",
      "longitude": -118.6169
    },
    {
      "elevation": 368.8,
      "mindate": "1961-01-01",
      "maxdate": "1963-06-01",
      "latitude": 34.11667,
      "name": "LA VERNE HTS FC 560, CA US",
      "datacoverage": 1,
      "id": "COOP:041777",
      "elevationUnit": "METERS",
      "longitude": -117.75
    },
    {
      "elevation": 366.1,
      "mindate": "1931-01-01",
      "maxdate": "1980-12-01",
      "latitude": 34.1,
      "name": "CLAREMONT POMONA COL, CA US",
      "datacoverage": 1,
      "id": "COOP:041779",
      "elevationUnit": "METERS",
      "longitude": -117.71667
    },
    {
      "elevation": 1122,
      "mindate": "1955-01-01",
      "maxdate": "1978-12-01",
      "latitude": 34.3,
      "name": "COLBYS FC 53D, CA US",
      "datacoverage": 1,
      "id": "COOP:041896",
      "elevationUnit": "METERS",
      "longitude": -118.11667
    },
    {
      "elevation": 182.9,
      "mindate": "1943-01-01",
      "maxdate": "1949-05-01",
      "latitude": 34.06667,
      "name": "COVINA, CA US",
      "datacoverage": 1,
      "id": "COOP:042088",
      "elevationUnit": "METERS",
      "longitude": -117.86667
    },
    {
      "elevation": 185,
      "mindate": "1931-01-01",
      "maxdate": "2015-11-01",
      "latitude": 34.0918,
      "name": "COVINA CITY YARD FC387B, CA US",
      "datacoverage": 0.897,
      "id": "COOP:042090",
      "elevationUnit": "METERS",
      "longitude": -117.88012
    },
    {
      "elevation": 1629.2,
      "mindate": "1959-11-01",
      "maxdate": "2013-12-01",
      "latitude": 34.3175,
      "name": "CRYSTAL LAKE FC238C, CA US",
      "datacoverage": 0.8584,
      "id": "COOP:042198",
      "elevationUnit": "METERS",
      "longitude": -117.8419
    },
    {
      "elevation": 1759.9,
      "mindate": "1955-01-01",
      "maxdate": "1959-10-01",
      "latitude": 34.33333,
      "name": "CRYSTAL LAKE EAST PINE FLAT, CA US",
      "datacoverage": 1,
      "id": "COOP:042199",
      "elevationUnit": "METERS",
      "longitude": -117.83333
    },
    {
      "elevation": 28,
      "mindate": "1935-01-01",
      "maxdate": "2015-11-01",
      "latitude": 34.005,
      "name": "CULVER CITY, CA US",
      "datacoverage": 0.9702,
      "id": "COOP:042214",
      "elevationUnit": "METERS",
      "longitude": -118.4139
    },
    {
      "elevation": 268.2,
      "mindate": "1948-01-01",
      "maxdate": "1985-12-01",
      "latitude": 34,
      "name": "DIAMOND BAR, CA US",
      "datacoverage": 0.9783,
      "id": "COOP:042432",
      "elevationUnit": "METERS",
      "longitude": -117.8
    },
    {
      "elevation": 33.5,
      "mindate": "1931-01-01",
      "maxdate": "2012-12-01",
      "latitude": 33.9297,
      "name": "DOWNEY FIRE STATION FC107C, CA US",
      "datacoverage": 0.9096,
      "id": "COOP:042494",
      "elevationUnit": "METERS",
      "longitude": -118.1455
    },
    {
      "elevation": 443.5,
      "mindate": "1931-01-01",
      "maxdate": "1990-01-01",
      "latitude": 34.48333,
      "name": "DRY CANYON RESERVOIR, CA US",
      "datacoverage": 0.9887,
      "id": "COOP:042516",
      "elevationUnit": "METERS",
      "longitude": -118.53333
    },
    {
      "elevation": 1759.9,
      "mindate": "1932-01-01",
      "maxdate": "1954-12-01",
      "latitude": 34.33333,
      "name": "CRYSTAL LAKE EAST PINE FLAT, CA US",
      "datacoverage": 1,
      "id": "COOP:042643",
      "elevationUnit": "METERS",
      "longitude": -117.83333
    },
    {
      "elevation": 67.1,
      "mindate": "1931-01-01",
      "maxdate": "1950-06-01",
      "latitude": 33.96667,
      "name": "EAST WHITTIER, CA US",
      "datacoverage": 1,
      "id": "COOP:042655",
      "elevationUnit": "METERS",
      "longitude": -118.03333
    },
    {
      "elevation": 1003.1,
      "mindate": "1931-08-01",
      "maxdate": "1954-12-01",
      "latitude": 34.66667,
      "name": "PINE CANYON PS FC321, CA US",
      "datacoverage": 0.9999,
      "id": "COOP:042734",
      "elevationUnit": "METERS",
      "longitude": -118.43333
    },
    {
      "elevation": 634,
      "mindate": "1955-01-01",
      "maxdate": "1972-10-01",
      "latitude": 34.6,
      "name": "ELIZABETH LAKE CN FC, CA US",
      "datacoverage": 0.9999,
      "id": "COOP:042735",
      "elevationUnit": "METERS",
      "longitude": -118.56667
    },
    {
      "elevation": 139.9,
      "mindate": "1948-01-01",
      "maxdate": "1977-10-01",
      "latitude": 33.8,
      "name": "EL MODENA, CA US",
      "datacoverage": 1,
      "id": "COOP:042775",
      "elevationUnit": "METERS",
      "longitude": -117.78333
    },
    {
      "elevation": 932.7,
      "mindate": "1931-01-01",
      "maxdate": "2015-11-01",
      "latitude": 34.705,
      "name": "FAIRMONT, CA US",
      "datacoverage": 0.9716,
      "id": "COOP:042941",
      "elevationUnit": "METERS",
      "longitude": -118.4297
    },
    {
      "elevation": 134.1,
      "mindate": "1959-06-01",
      "maxdate": "1977-06-01",
      "latitude": 34.4,
      "name": "FILLMORE 1 WNW, CA US",
      "datacoverage": 1,
      "id": "COOP:043050",
      "elevationUnit": "METERS",
      "longitude": -118.93333
    },
    {
      "elevation": 98.1,
      "mindate": "1941-10-01",
      "maxdate": "1965-12-01",
      "latitude": 33.9,
      "name": "FULLERTON ARROUES RA, CA US",
      "datacoverage": 0.9965,
      "id": "COOP:043279",
      "elevationUnit": "METERS",
      "longitude": -117.91667
    },
    {
      "elevation": 121.9,
      "mindate": "1941-12-01",
      "maxdate": "1958-12-01",
      "latitude": 33.91667,
      "name": "FULLERTON CREEK 5, CA US",
      "datacoverage": 0.9902,
      "id": "COOP:043282",
      "elevationUnit": "METERS",
      "longitude": -117.86667
    },
    {
      "elevation": 103.6,
      "mindate": "1941-11-01",
      "maxdate": "2013-12-20",
      "latitude": 33.8963,
      "name": "FULLERTON DAM, CA US",
      "datacoverage": 1,
      "id": "COOP:043285",
      "elevationUnit": "METERS",
      "longitude": -117.888
    },
    {
      "elevation": 100.9,
      "mindate": "1933-03-01",
      "maxdate": "1976-12-01",
      "latitude": 33.88333,
      "name": "FULLERTON HILLCREST, CA US",
      "datacoverage": 0.9999,
      "id": "COOP:043288",
      "elevationUnit": "METERS",
      "longitude": -117.91667
    },
    {
      "elevation": 340.5,
      "mindate": "2000-01-01",
      "maxdate": "2013-12-01",
      "latitude": 34.0869,
      "name": "GETTY CENTER, CA US",
      "datacoverage": 0.9523,
      "id": "COOP:043392",
      "elevationUnit": "METERS",
      "longitude": -118.4794
    },
    {
      "elevation": 267.9,
      "mindate": "1931-01-01",
      "maxdate": "1952-08-01",
      "latitude": 34.16667,
      "name": "GIRARD BRANT RANCH, CA US",
      "datacoverage": 0.9961,
      "id": "COOP:043430",
      "elevationUnit": "METERS",
      "longitude": -118.6
    },
    {
      "elevation": 161.8,
      "mindate": "1931-01-01",
      "maxdate": "1971-08-01",
      "latitude": 34.15,
      "name": "GLENDALE STAPENHORST, CA US",
      "datacoverage": 1,
      "id": "COOP:043450",
      "elevationUnit": "METERS",
      "longitude": -118.26667
    },
    {
      "elevation": 284.4,
      "mindate": "1931-01-01",
      "maxdate": "2010-12-01",
      "latitude": 34.1472,
      "name": "GLENDORA FC 287B, CA US",
      "datacoverage": 0.9396,
      "id": "COOP:043452",
      "elevationUnit": "METERS",
      "longitude": -117.8472
    },
    {
      "elevation": 747.1,
      "mindate": "1931-01-01",
      "maxdate": "1970-06-01",
      "latitude": 34.26667,
      "name": "HAINES CAN LWR FC 36, CA US",
      "datacoverage": 0.998,
      "id": "COOP:043703",
      "elevationUnit": "METERS",
      "longitude": -118.26667
    },
    {
      "elevation": 1049.1,
      "mindate": "1931-01-01",
      "maxdate": "1979-01-01",
      "latitude": 34.26667,
      "name": "HAINES CNYN UPR FC367, CA US",
      "datacoverage": 0.9982,
      "id": "COOP:043704",
      "elevationUnit": "METERS",
      "longitude": -118.25
    },
    {
      "elevation": 331.3,
      "mindate": "1939-12-01",
      "maxdate": "2012-12-01",
      "latitude": 34.2608,
      "name": "HANSEN DAM, CA US",
      "datacoverage": 0.996,
      "id": "COOP:043751",
      "elevationUnit": "METERS",
      "longitude": -118.3863
    },
    {
      "elevation": 808,
      "mindate": "1931-01-01",
      "maxdate": "1978-06-01",
      "latitude": 34.21667,
      "name": "HOEGEES FC 60 A, CA US",
      "datacoverage": 0.986,
      "id": "COOP:044017",
      "elevationUnit": "METERS",
      "longitude": -118.03333
    },
    {
      "elevation": 164.6,
      "mindate": "2003-08-01",
      "maxdate": "2015-11-01",
      "latitude": 33.72,
      "name": "IRVINE RANCH, CA US",
      "datacoverage": 0.9594,
      "id": "COOP:044303",
      "elevationUnit": "METERS",
      "longitude": -117.723
    },
    {
      "elevation": 214,
      "mindate": "1942-01-01",
      "maxdate": "1955-12-01",
      "latitude": 33.95,
      "name": "LA BREA CANYON HUNT, CA US",
      "datacoverage": 0.9763,
      "id": "COOP:044620",
      "elevationUnit": "METERS",
      "longitude": -117.83333
    },
    {
      "elevation": 470.9,
      "mindate": "1931-01-01",
      "maxdate": "2010-12-01",
      "latitude": 34.2222,
      "name": "LA CRESCENTA FC251C, CA US",
      "datacoverage": 0.9469,
      "id": "COOP:044628",
      "elevationUnit": "METERS",
      "longitude": -118.2377
    },
    {
      "elevation": 732.1,
      "mindate": "1945-01-01",
      "maxdate": "1972-10-01",
      "latitude": 34.68333,
      "name": "LANCASTER, CA US",
      "datacoverage": 0.997,
      "id": "COOP:044747",
      "elevationUnit": "METERS",
      "longitude": -118.11667
    },
    {
      "elevation": 712.6,
      "mindate": "1974-05-01",
      "maxdate": "2015-11-01",
      "latitude": 34.74121,
      "name": "LANCASTER, CA US",
      "datacoverage": 0.9839,
      "id": "COOP:044749",
      "elevationUnit": "METERS",
      "longitude": -118.21255
    },
    {
      "elevation": 368.8,
      "mindate": "1963-07-01",
      "maxdate": "1972-10-01",
      "latitude": 34.11667,
      "name": "LA VERNE HTS FC 560, CA US",
      "datacoverage": 0.9994,
      "id": "COOP:044840",
      "elevationUnit": "METERS",
      "longitude": -117.75
    },
    {
      "elevation": 487.7,
      "mindate": "1933-01-01",
      "maxdate": "1997-12-01",
      "latitude": 34.07639,
      "name": "LECHUZA PATROL STATION, CA US",
      "datacoverage": 0.9961,
      "id": "COOP:044867",
      "elevationUnit": "METERS",
      "longitude": -118.88028
    },
    {
      "elevation": 839.1,
      "mindate": "1948-01-01",
      "maxdate": "1970-06-01",
      "latitude": 34.31667,
      "name": "LITTLE TUJUNGA GLD C, CA US",
      "datacoverage": 0.7009,
      "id": "COOP:044986",
      "elevationUnit": "METERS",
      "longitude": -118.3
    },
    {
      "elevation": 368.8,
      "mindate": "1931-01-01",
      "maxdate": "1960-12-01",
      "latitude": 34.11667,
      "name": "LA VERNE HTS FC 560, CA US",
      "datacoverage": 0.9972,
      "id": "COOP:044993",
      "elevationUnit": "METERS",
      "longitude": -117.75
    },
    {
      "elevation": 1036.9,
      "mindate": "1931-01-01",
      "maxdate": "1945-04-01",
      "latitude": 34.5,
      "name": "LLANO, CA US",
      "datacoverage": 1,
      "id": "COOP:045001",
      "elevationUnit": "METERS",
      "longitude": -117.81667
    },
    {
      "elevation": 1164.9,
      "mindate": "1945-09-01",
      "maxdate": "1965-10-01",
      "latitude": 34.46667,
      "name": "LLANO SHAWNEE HILLS, CA US",
      "datacoverage": 0.9959,
      "id": "COOP:045002",
      "elevationUnit": "METERS",
      "longitude": -117.75
    },
    {
      "elevation": 6.1,
      "mindate": "1970-01-01",
      "maxdate": "1973-04-01",
      "latitude": 33.76111,
      "name": "LONG BEACH AQUARIUM, CA US",
      "datacoverage": 1,
      "id": "COOP:045080",
      "elevationUnit": "METERS",
      "longitude": -118.19694
    },
    {
      "elevation": 6.1,
      "mindate": "1931-01-01",
      "maxdate": "1969-12-01",
      "latitude": 33.76111,
      "name": "LONG BEACH AQUARIUM, CA US",
      "datacoverage": 1,
      "id": "COOP:045082",
      "elevationUnit": "METERS",
      "longitude": -118.19694
    },
    {
      "elevation": 10.2,
      "mindate": "1958-04-01",
      "maxdate": "2015-11-01",
      "latitude": 33.81177,
      "name": "LONG BEACH DAUGHERTY AIRPORT, CA US",
      "datacoverage": 1,
      "id": "COOP:045085",
      "elevationUnit": "METERS",
      "longitude": -118.14718
    },
    {
      "elevation": 125,
      "mindate": "1948-01-01",
      "maxdate": "1953-06-07",
      "latitude": 34.05,
      "name": "LOS ANGELES 6TH MAIN, CA US",
      "datacoverage": 0.9338,
      "id": "COOP:045111",
      "elevationUnit": "METERS",
      "longitude": -118.25
    },
    {
      "elevation": 85,
      "mindate": "1940-10-01",
      "maxdate": "1953-11-01",
      "latitude": 34.06667,
      "name": "LOS ANGELES TERMINAL, CA US",
      "datacoverage": 0.9937,
      "id": "COOP:045112",
      "elevationUnit": "METERS",
      "longitude": -118.23333
    },
    {
      "elevation": 29.7,
      "mindate": "1944-08-01",
      "maxdate": "2015-11-01",
      "latitude": 33.93816,
      "name": "LOS ANGELES INTERNATIONAL AIRPORT, CA US",
      "datacoverage": 1,
      "id": "COOP:045114",
      "elevationUnit": "METERS",
      "longitude": -118.3866
    },
    {
      "elevation": 115.2,
      "mindate": "1948-07-01",
      "maxdate": "2015-11-01",
      "latitude": 34.0678,
      "name": "LOS ANGELES DOWNTOWN, CA US",
      "datacoverage": 0.9963,
      "id": "COOP:045115",
      "elevationUnit": "METERS",
      "longitude": -118.2417
    },
    {
      "elevation": 1357,
      "mindate": "1948-01-01",
      "maxdate": "1962-06-01",
      "latitude": 34.4,
      "name": "MAGIC MOUNTAIN, CA US",
      "datacoverage": 0.9512,
      "id": "COOP:045256",
      "elevationUnit": "METERS",
      "longitude": -118.28333
    },
    {
      "elevation": 1530.1,
      "mindate": "1972-01-01",
      "maxdate": "2007-12-01",
      "latitude": 34.39278,
      "name": "MILL CREEK SUMMIT, CA US",
      "datacoverage": 0.0156,
      "id": "COOP:045637",
      "elevationUnit": "METERS",
      "longitude": -118.07528
    },
    {
      "elevation": 171,
      "mindate": "1952-10-01",
      "maxdate": "1953-11-01",
      "latitude": 34.15,
      "name": "MONROVIA, CA US",
      "datacoverage": 1,
      "id": "COOP:045781",
      "elevationUnit": "METERS",
      "longitude": -118
    },
    {
      "elevation": 75,
      "mindate": "1979-01-01",
      "maxdate": "2010-12-01",
      "latitude": 34.0191,
      "name": "MONTEBELLO, CA US",
      "datacoverage": 0.9688,
      "id": "COOP:045790",
      "elevationUnit": "METERS",
      "longitude": -118.1052
    },
    {
      "elevation": 177.1,
      "mindate": "1956-01-01",
      "maxdate": "1977-06-01",
      "latitude": 34.28333,
      "name": "MOORPARK, CA US",
      "datacoverage": 1,
      "id": "COOP:045823",
      "elevationUnit": "METERS",
      "longitude": -118.88333
    },
    {
      "elevation": 195.1,
      "mindate": "1956-01-01",
      "maxdate": "1958-06-01",
      "latitude": 34.25,
      "name": "MOORPARK 3 SE, CA US",
      "datacoverage": 0.0299,
      "id": "COOP:045825",
      "elevationUnit": "METERS",
      "longitude": -118.85
    },
    {
      "elevation": 320,
      "mindate": "1956-01-01",
      "maxdate": "1958-06-01",
      "latitude": 34.33333,
      "name": "MOORPARK 3 NNW, CA US",
      "datacoverage": 0.0312,
      "id": "COOP:045826",
      "elevationUnit": "METERS",
      "longitude": -118.9
    },
    {
      "elevation": 1304.8,
      "mindate": "1958-05-01",
      "maxdate": "1976-10-01",
      "latitude": 34.23333,
      "name": "MOUNT BALDY FC 85 G, CA US",
      "datacoverage": 0.9998,
      "id": "COOP:045900",
      "elevationUnit": "METERS",
      "longitude": -117.65
    },
    {
      "elevation": 1739.2,
      "mindate": "1931-01-01",
      "maxdate": "1942-01-01",
      "latitude": 34.23333,
      "name": "MOUNT WILSON, CA US",
      "datacoverage": 0.9998,
      "id": "COOP:046003",
      "elevationUnit": "METERS",
      "longitude": -118.06667
    },
    {
      "elevation": 1740.4,
      "mindate": "1940-03-01",
      "maxdate": "2010-12-01",
      "latitude": 34.2308,
      "name": "MOUNT WILSON CBS, CA US",
      "datacoverage": 0.9811,
      "id": "COOP:046006",
      "elevationUnit": "METERS",
      "longitude": -118.0711
    },
    {
      "elevation": 880.9,
      "mindate": "1931-01-01",
      "maxdate": "1964-05-01",
      "latitude": 34.8,
      "name": "NEENACH, CA US",
      "datacoverage": 0.808,
      "id": "COOP:046122",
      "elevationUnit": "METERS",
      "longitude": -118.58333
    },
    {
      "elevation": 370,
      "mindate": "1941-07-01",
      "maxdate": "1949-09-01",
      "latitude": 34.4,
      "name": "NEWHALL AIRPORT, CA US",
      "datacoverage": 0.7038,
      "id": "COOP:046159",
      "elevationUnit": "METERS",
      "longitude": -118.55
    },
    {
      "elevation": 538,
      "mindate": "1997-05-01",
      "maxdate": "2013-12-01",
      "latitude": 34.3933,
      "name": "NEWHALL 5 NW, CA US",
      "datacoverage": 0.9798,
      "id": "COOP:046161",
      "elevationUnit": "METERS",
      "longitude": -118.5938
    },
    {
      "elevation": 375.8,
      "mindate": "1931-01-01",
      "maxdate": "2012-12-01",
      "latitude": 34.3869,
      "name": "NEWHALL S FC32CE, CA US",
      "datacoverage": 0.9507,
      "id": "COOP:046162",
      "elevationUnit": "METERS",
      "longitude": -118.5341
    },
    {
      "elevation": 409,
      "mindate": "1949-10-01",
      "maxdate": "1968-07-01",
      "latitude": 34.36667,
      "name": "NEWHALL US RANGER STATION, CA US",
      "datacoverage": 0.9173,
      "id": "COOP:046164",
      "elevationUnit": "METERS",
      "longitude": -118.51667
    },
    {
      "elevation": 426.7,
      "mindate": "1989-07-01",
      "maxdate": "1997-04-01",
      "latitude": 34.36667,
      "name": "NEWHALL, CA US",
      "datacoverage": 0.9894,
      "id": "COOP:046165",
      "elevationUnit": "METERS",
      "longitude": -118.56667
    },
    {
      "elevation": 189,
      "mindate": "1936-01-01",
      "maxdate": "1962-07-01",
      "latitude": 34.16667,
      "name": "NORTH HOLLYWOOD, CA US",
      "datacoverage": 0.9938,
      "id": "COOP:046256",
      "elevationUnit": "METERS",
      "longitude": -118.38333
    },
    {
      "elevation": 275.5,
      "mindate": "1998-04-01",
      "maxdate": "2010-02-01",
      "latitude": 34.2447,
      "name": "NORTHRIDGE CAL STATE, CA US",
      "datacoverage": 1,
      "id": "COOP:046263",
      "elevationUnit": "METERS",
      "longitude": -118.525
    },
    {
      "elevation": 149,
      "mindate": "1941-11-01",
      "maxdate": "1966-05-01",
      "latitude": 33.91667,
      "name": "OLINDA, CA US",
      "datacoverage": 0.9459,
      "id": "COOP:046432",
      "elevationUnit": "METERS",
      "longitude": -117.85
    },
    {
      "elevation": 1296,
      "mindate": "1931-01-01",
      "maxdate": "1969-07-01",
      "latitude": 34.25,
      "name": "OPIDS CAMP FC 57 B E, CA US",
      "datacoverage": 0.9439,
      "id": "COOP:046465",
      "elevationUnit": "METERS",
      "longitude": -118.1
    },
    {
      "elevation": 201.2,
      "mindate": "1948-01-01",
      "maxdate": "2013-12-20",
      "latitude": 33.9378,
      "name": "ORANGE CO RESERVOIR, CA US",
      "datacoverage": 0.9783,
      "id": "COOP:046473",
      "elevationUnit": "METERS",
      "longitude": -117.885
    },
    {
      "elevation": 206,
      "mindate": "1944-03-01",
      "maxdate": "1956-05-09",
      "latitude": 34.0419,
      "name": "SPADRA LANTERMAN HOSPITAL, CA US",
      "datacoverage": 0.992,
      "id": "COOP:046594",
      "elevationUnit": "METERS",
      "longitude": -117.8105
    },
    {
      "elevation": 472.4,
      "mindate": "1938-10-01",
      "maxdate": "2015-11-01",
      "latitude": 34.3294,
      "name": "PACOIMA DAM FC33A E, CA US",
      "datacoverage": 0.9352,
      "id": "COOP:046602",
      "elevationUnit": "METERS",
      "longitude": -118.4005
    },
    {
      "elevation": 796.1,
      "mindate": "1931-01-01",
      "maxdate": "2015-11-01",
      "latitude": 34.5883,
      "name": "PALMDALE, CA US",
      "datacoverage": 0.9843,
      "id": "COOP:046624",
      "elevationUnit": "METERS",
      "longitude": -118.0938
    },
    {
      "elevation": 787,
      "mindate": "1953-03-01",
      "maxdate": "1963-03-01",
      "latitude": 34.6,
      "name": "PALMDALE 2 NE, CA US",
      "datacoverage": 0.0115,
      "id": "COOP:046625",
      "elevationUnit": "METERS",
      "longitude": -118.1
    },
    {
      "elevation": 764.7,
      "mindate": "1943-12-01",
      "maxdate": "1974-03-01",
      "latitude": 34.62944,
      "name": "PALMDALE AIRPORT, CA US",
      "datacoverage": 1,
      "id": "COOP:046627",
      "elevationUnit": "METERS",
      "longitude": -118.08309
    },
    {
      "elevation": 67.1,
      "mindate": "1931-01-01",
      "maxdate": "2015-11-01",
      "latitude": 33.7997,
      "name": "PALOS VERDES ES FC43D, CA US",
      "datacoverage": 0.9088,
      "id": "COOP:046663",
      "elevationUnit": "METERS",
      "longitude": -118.391
    },
    {
      "elevation": 263.3,
      "mindate": "1931-01-01",
      "maxdate": "2015-11-01",
      "latitude": 34.1483,
      "name": "PASADENA, CA US",
      "datacoverage": 1,
      "id": "COOP:046719",
      "elevationUnit": "METERS",
      "longitude": -118.1447
    },
    {
      "elevation": 945.2,
      "mindate": "1985-06-01",
      "maxdate": "2015-11-01",
      "latitude": 34.5025,
      "name": "PEARBLOSSOM, CA US",
      "datacoverage": 0.9563,
      "id": "COOP:046773",
      "elevationUnit": "METERS",
      "longitude": -117.8969
    },
    {
      "elevation": 1003.1,
      "mindate": "1955-01-01",
      "maxdate": "1972-10-01",
      "latitude": 34.66667,
      "name": "PINE CANYON PS FC321, CA US",
      "datacoverage": 0.9999,
      "id": "COOP:046891",
      "elevationUnit": "METERS",
      "longitude": -118.43333
    },
    {
      "elevation": 217,
      "mindate": "1959-06-01",
      "maxdate": "2015-11-01",
      "latitude": 34.4061,
      "name": "PIRU 2 ESE, CA US",
      "datacoverage": 0.9646,
      "id": "COOP:046940",
      "elevationUnit": "METERS",
      "longitude": -118.7569
    },
    {
      "elevation": 860.1,
      "mindate": "1970-05-01",
      "maxdate": "1971-07-01",
      "latitude": 34.36667,
      "name": "PIRU 3 SSE, CA US",
      "datacoverage": 0.0045,
      "id": "COOP:046941",
      "elevationUnit": "METERS",
      "longitude": -118.78333
    },
    {
      "elevation": 243.8,
      "mindate": "1971-06-01",
      "maxdate": "2008-07-01",
      "latitude": 34.39972,
      "name": "PIRU TELEMETERING, CA US",
      "datacoverage": 0.0131,
      "id": "COOP:046942",
      "elevationUnit": "METERS",
      "longitude": -118.705
    },
    {
      "elevation": 304.5,
      "mindate": "1931-01-01",
      "maxdate": "2012-12-01",
      "latitude": 34.0816,
      "name": "POMONA FAIRPLEX, CA US",
      "datacoverage": 0.9136,
      "id": "COOP:047050",
      "elevationUnit": "METERS",
      "longitude": -117.7658
    },
    {
      "elevation": 634,
      "mindate": "1949-01-01",
      "maxdate": "1954-12-01",
      "latitude": 34.6,
      "name": "ELIZABETH LAKE CN FC, CA US",
      "datacoverage": 0.9863,
      "id": "COOP:047220",
      "elevationUnit": "METERS",
      "longitude": -118.56667
    },
    {
      "elevation": 43.3,
      "mindate": "2014-01-01",
      "maxdate": "2015-11-01",
      "latitude": 33.8342,
      "name": "REDONDO BEACH, CA US",
      "datacoverage": 1,
      "id": "COOP:047326",
      "elevationUnit": "METERS",
      "longitude": -118.3759
    },
    {
      "elevation": 729.1,
      "mindate": "1931-01-01",
      "maxdate": "1967-08-01",
      "latitude": 34.16667,
      "name": "SAN ANTONIO CN MOUTH, CA US",
      "datacoverage": 0.9773,
      "id": "COOP:047711",
      "elevationUnit": "METERS",
      "longitude": -117.66667
    },
    {
      "elevation": 650.1,
      "mindate": "1972-09-01",
      "maxdate": "1977-08-18",
      "latitude": 34.16667,
      "name": "SAN ANTONIO DAM, CA US",
      "datacoverage": 0.0264,
      "id": "COOP:047712",
      "elevationUnit": "METERS",
      "longitude": -117.66667
    },
    {
      "elevation": 1226.8,
      "mindate": "1931-01-01",
      "maxdate": "1988-11-01",
      "latitude": 34.75,
      "name": "SANDBERG PTRL STATION, CA US",
      "datacoverage": 0.9698,
      "id": "COOP:047734",
      "elevationUnit": "METERS",
      "longitude": -118.71667
    },
    {
      "elevation": 1374.6,
      "mindate": "1948-01-01",
      "maxdate": "2015-11-01",
      "latitude": 34.74361,
      "name": "SANDBERG, CA US",
      "datacoverage": 0.9276,
      "id": "COOP:047735",
      "elevationUnit": "METERS",
      "longitude": -118.72528
    },
    {
      "elevation": 292,
      "mindate": "1931-01-01",
      "maxdate": "2012-12-01",
      "latitude": 34.1052,
      "name": "SAN DIMAS FIRE FC 95, CA US",
      "datacoverage": 0.9248,
      "id": "COOP:047749",
      "elevationUnit": "METERS",
      "longitude": -117.8019
    },
    {
      "elevation": 853.7,
      "mindate": "1948-01-01",
      "maxdate": "1985-12-01",
      "latitude": 34.2,
      "name": "SAN DIMAS TANBARK FL, CA US",
      "datacoverage": 1,
      "id": "COOP:047750",
      "elevationUnit": "METERS",
      "longitude": -117.76667
    },
    {
      "elevation": 296,
      "mindate": "1931-01-01",
      "maxdate": "1974-03-01",
      "latitude": 34.28333,
      "name": "SAN FERNANDO, CA US",
      "datacoverage": 0.9924,
      "id": "COOP:047759",
      "elevationUnit": "METERS",
      "longitude": -118.46667
    },
    {
      "elevation": 381,
      "mindate": "1948-01-01",
      "maxdate": "2012-12-01",
      "latitude": 34.3133,
      "name": "SAN FERNANDO PH 3, CA US",
      "datacoverage": 0.9547,
      "id": "COOP:047762",
      "elevationUnit": "METERS",
      "longitude": -118.4927
    },
    {
      "elevation": 226.8,
      "mindate": "1931-01-01",
      "maxdate": "2015-11-01",
      "latitude": 34.1553,
      "name": "SAN GABRIEL CANYON PH, CA US",
      "datacoverage": 0.9951,
      "id": "COOP:047776",
      "elevationUnit": "METERS",
      "longitude": -117.9078
    },
    {
      "elevation": 451.4,
      "mindate": "1942-01-01",
      "maxdate": "2015-11-01",
      "latitude": 34.2052,
      "name": "SAN GABRIEL DAM FC425B E, CA US",
      "datacoverage": 0.885,
      "id": "COOP:047779",
      "elevationUnit": "METERS",
      "longitude": -117.8608
    },
    {
      "elevation": 110.6,
      "mindate": "1939-05-01",
      "maxdate": "2010-02-01",
      "latitude": 34.0842,
      "name": "SAN GABRIEL FIRE DEPARTMENT, CA US",
      "datacoverage": 0.9894,
      "id": "COOP:047785",
      "elevationUnit": "METERS",
      "longitude": -118.1003
    },
    {
      "elevation": 3,
      "mindate": "1931-01-01",
      "maxdate": "1964-08-01",
      "latitude": 33.754167,
      "name": "SAN PEDRO, CA US",
      "datacoverage": 1,
      "id": "COOP:047876",
      "elevationUnit": "METERS",
      "longitude": -118.233611
    },
    {
      "elevation": 41.1,
      "mindate": "1931-01-01",
      "maxdate": "2015-11-01",
      "latitude": 33.7442,
      "name": "SANTA ANA FIRE STATION, CA US",
      "datacoverage": 0.9961,
      "id": "COOP:047888",
      "elevationUnit": "METERS",
      "longitude": -117.8667
    },
    {
      "elevation": 622.1,
      "mindate": "1938-09-01",
      "maxdate": "1972-10-01",
      "latitude": 34.21667,
      "name": "SANTA ANITA FERN LOD, CA US",
      "datacoverage": 0.9243,
      "id": "COOP:047897",
      "elevationUnit": "METERS",
      "longitude": -118.01667
    },
    {
      "elevation": 135,
      "mindate": "1941-11-01",
      "maxdate": "2012-12-01",
      "latitude": 34.1125,
      "name": "SANTA FE DAM, CA US",
      "datacoverage": 1,
      "id": "COOP:047926",
      "elevationUnit": "METERS",
      "longitude": -117.9694
    },
    {
      "elevation": 18,
      "mindate": "1931-01-01",
      "maxdate": "1972-10-01",
      "latitude": 34.01667,
      "name": "SANTA MONICA, CA US",
      "datacoverage": 0.998,
      "id": "COOP:047950",
      "elevationUnit": "METERS",
      "longitude": -118.48333
    },
    {
      "elevation": 4.3,
      "mindate": "1937-09-01",
      "maxdate": "2010-02-01",
      "latitude": 34.0075,
      "name": "SANTA MONICA PIER, CA US",
      "datacoverage": 0.9564,
      "id": "COOP:047953",
      "elevationUnit": "METERS",
      "longitude": -118.49972
    },
    {
      "elevation": 463.9,
      "mindate": "1956-02-01",
      "maxdate": "1958-06-01",
      "latitude": 34.33333,
      "name": "SANTA SUSANA 4 NNE, CA US",
      "datacoverage": 0.033,
      "id": "COOP:047973",
      "elevationUnit": "METERS",
      "longitude": -118.7
    },
    {
      "elevation": 260.6,
      "mindate": "1948-01-01",
      "maxdate": "2001-06-01",
      "latitude": 33.78694,
      "name": "SANTIAGO DAM, CA US",
      "datacoverage": 0.9907,
      "id": "COOP:047987",
      "elevationUnit": "METERS",
      "longitude": -117.72167
    },
    {
      "elevation": 658.7,
      "mindate": "1933-01-01",
      "maxdate": "2015-11-01",
      "latitude": 34.58998,
      "name": "SAUGUS POWER PLANT 1, CA US",
      "datacoverage": 0.984,
      "id": "COOP:048014",
      "elevationUnit": "METERS",
      "longitude": -118.45412
    },
    {
      "elevation": 207.3,
      "mindate": "1939-12-01",
      "maxdate": "2012-12-01",
      "latitude": 34.1661,
      "name": "SEPULVEDA DAM, CA US",
      "datacoverage": 1,
      "id": "COOP:048092",
      "elevationUnit": "METERS",
      "longitude": -118.4736
    },
    {
      "elevation": 116.1,
      "mindate": "1941-07-01",
      "maxdate": "1957-05-01",
      "latitude": 33.93333,
      "name": "BREA CITY SHAFFER TO, CA US",
      "datacoverage": 0.9999,
      "id": "COOP:048119",
      "elevationUnit": "METERS",
      "longitude": -117.9
    },
    {
      "elevation": 207,
      "mindate": "1948-08-01",
      "maxdate": "1966-05-01",
      "latitude": 33.95,
      "name": "SHELL ABSORPTION PLANT, CA US",
      "datacoverage": 1,
      "id": "COOP:048158",
      "elevationUnit": "METERS",
      "longitude": -117.9
    },
    {
      "elevation": 345,
      "mindate": "1931-01-01",
      "maxdate": "1958-06-01",
      "latitude": 34.16667,
      "name": "SIERRA MADRE HENSZEY, CA US",
      "datacoverage": 1,
      "id": "COOP:048210",
      "elevationUnit": "METERS",
      "longitude": -118.05
    },
    {
      "elevation": 33.5,
      "mindate": "1937-03-01",
      "maxdate": "2012-12-01",
      "latitude": 33.7966,
      "name": "SIGNAL HILL FC 415, CA US",
      "datacoverage": 0.9808,
      "id": "COOP:048230",
      "elevationUnit": "METERS",
      "longitude": -118.1683
    },
    {
      "elevation": 333.8,
      "mindate": "1948-01-01",
      "maxdate": "2013-12-19",
      "latitude": 33.7425,
      "name": "SILVERADO RANGER STATION, CA US",
      "datacoverage": 0.956,
      "id": "COOP:048243",
      "elevationUnit": "METERS",
      "longitude": -117.66
    },
    {
      "elevation": 235,
      "mindate": "1956-01-01",
      "maxdate": "1956-11-01",
      "latitude": 34.26667,
      "name": "SIMI, CA US",
      "datacoverage": 0.0197,
      "id": "COOP:048256",
      "elevationUnit": "METERS",
      "longitude": -118.78333
    },
    {
      "elevation": 281,
      "mindate": "1956-12-01",
      "maxdate": "1958-06-01",
      "latitude": 34.26667,
      "name": "SIMI 3 E, CA US",
      "datacoverage": 0.0373,
      "id": "COOP:048258",
      "elevationUnit": "METERS",
      "longitude": -118.73333
    },
    {
      "elevation": 201.2,
      "mindate": "1975-10-01",
      "maxdate": "2013-12-01",
      "latitude": 34.2838,
      "name": "SIMI SANITATION PLAN, CA US",
      "datacoverage": 0.0132,
      "id": "COOP:048261",
      "elevationUnit": "METERS",
      "longitude": -118.8119
    },
    {
      "elevation": 1122,
      "mindate": "1931-01-01",
      "maxdate": "1954-12-01",
      "latitude": 34.3,
      "name": "COLBYS FC 53D, CA US",
      "datacoverage": 0.9965,
      "id": "COOP:048290",
      "elevationUnit": "METERS",
      "longitude": -118.11667
    },
    {
      "elevation": 256,
      "mindate": "1948-01-01",
      "maxdate": "1948-06-01",
      "latitude": 33.95,
      "name": "SOUTHERN CALIF. GAS CO, CA US",
      "datacoverage": 1,
      "id": "COOP:048384",
      "elevationUnit": "METERS",
      "longitude": -117.9
    },
    {
      "elevation": 206,
      "mindate": "1955-01-01",
      "maxdate": "2011-11-01",
      "latitude": 34.0419,
      "name": "SPADRA LANTERMAN HOSPITAL, CA US",
      "datacoverage": 1,
      "id": "COOP:048436",
      "elevationUnit": "METERS",
      "longitude": -117.8105
    },
    {
      "elevation": 445,
      "mindate": "1949-11-01",
      "maxdate": "1966-06-01",
      "latitude": 34.26667,
      "name": "SUNLAND, CA US",
      "datacoverage": 1,
      "id": "COOP:048660",
      "elevationUnit": "METERS",
      "longitude": -118.3
    },
    {
      "elevation": 534,
      "mindate": "1931-01-01",
      "maxdate": "1949-09-01",
      "latitude": 34.25,
      "name": "SUNLAND TUJUNGA, CA US",
      "datacoverage": 0.9467,
      "id": "COOP:048662",
      "elevationUnit": "METERS",
      "longitude": -118.28333
    },
    {
      "elevation": 331.9,
      "mindate": "1956-01-01",
      "maxdate": "1977-06-01",
      "latitude": 34.26667,
      "name": "SUSANA KNOLLS, CA US",
      "datacoverage": 1,
      "id": "COOP:048700",
      "elevationUnit": "METERS",
      "longitude": -118.66667
    },
    {
      "elevation": 2288.1,
      "mindate": "1931-01-01",
      "maxdate": "1961-08-01",
      "latitude": 34.38333,
      "name": "TABLE MOUNTAIN, CA US",
      "datacoverage": 1,
      "id": "COOP:048748",
      "elevationUnit": "METERS",
      "longitude": -117.68333
    },
    {
      "elevation": 238.7,
      "mindate": "2004-10-01",
      "maxdate": "2008-08-01",
      "latitude": 34.18194,
      "name": "THOUSAND OAKS 1 SW, CA US",
      "datacoverage": 0.9146,
      "id": "COOP:048904",
      "elevationUnit": "METERS",
      "longitude": -118.89861
    },
    {
      "elevation": 246.9,
      "mindate": "1956-01-01",
      "maxdate": "1977-06-01",
      "latitude": 34.21667,
      "name": "THOUSAND OAKS, CA US",
      "datacoverage": 0.9807,
      "id": "COOP:048905",
      "elevationUnit": "METERS",
      "longitude": -118.86667
    },
    {
      "elevation": 227.1,
      "mindate": "1931-01-01",
      "maxdate": "2013-12-01",
      "latitude": 34.0841,
      "name": "TOPANGA PTRL STATION FC6, CA US",
      "datacoverage": 0.9237,
      "id": "COOP:048967",
      "elevationUnit": "METERS",
      "longitude": -118.5988
    },
    {
      "elevation": 27.4,
      "mindate": "1932-01-01",
      "maxdate": "2015-11-01",
      "latitude": 33.8016,
      "name": "TORRANCE AIRPORT, CA US",
      "datacoverage": 0.9812,
      "id": "COOP:048973",
      "elevationUnit": "METERS",
      "longitude": -118.3419
    },
    {
      "elevation": 554.7,
      "mindate": "1966-07-01",
      "maxdate": "1987-03-01",
      "latitude": 34.26667,
      "name": "TUJUNGA, CA US",
      "datacoverage": 0.9759,
      "id": "COOP:049047",
      "elevationUnit": "METERS",
      "longitude": -118.28333
    },
    {
      "elevation": 1415.8,
      "mindate": "1948-01-01",
      "maxdate": "1976-07-01",
      "latitude": 34.38333,
      "name": "TUJUNGA MILL FC 470, CA US",
      "datacoverage": 0.9527,
      "id": "COOP:049049",
      "elevationUnit": "METERS",
      "longitude": -118.08333
    },
    {
      "elevation": 1415.8,
      "mindate": "1949-11-01",
      "maxdate": "1951-04-27",
      "latitude": 34.38333,
      "name": "TUJUNGA MILL FC 470, CA US",
      "datacoverage": 0.3082,
      "id": "COOP:049050",
      "elevationUnit": "METERS",
      "longitude": -118.08333
    },
    {
      "elevation": 217,
      "mindate": "1941-11-01",
      "maxdate": "1970-03-01",
      "latitude": 33.93333,
      "name": "UNION OIL STEARNS AB, CA US",
      "datacoverage": 0.9708,
      "id": "COOP:049138",
      "elevationUnit": "METERS",
      "longitude": -117.86667
    },
    {
      "elevation": 131.1,
      "mindate": "1933-01-01",
      "maxdate": "2015-11-01",
      "latitude": 34.0697,
      "name": "U C L A, CA US",
      "datacoverage": 0.996,
      "id": "COOP:049152",
      "elevationUnit": "METERS",
      "longitude": -118.4427
    },
    {
      "elevation": 561.1,
      "mindate": "1931-01-01",
      "maxdate": "1959-09-01",
      "latitude": 34.13333,
      "name": "UPLAND, CA US",
      "datacoverage": 0.9682,
      "id": "COOP:049157",
      "elevationUnit": "METERS",
      "longitude": -117.68333
    },
    {
      "elevation": 491,
      "mindate": "1959-09-01",
      "maxdate": "1980-05-01",
      "latitude": 34.13333,
      "name": "UPLAND 3 N, CA US",
      "datacoverage": 0.9959,
      "id": "COOP:049158",
      "elevationUnit": "METERS",
      "longitude": -117.65
    },
    {
      "elevation": 1097.9,
      "mindate": "1972-11-01",
      "maxdate": "1985-04-01",
      "latitude": 34.45,
      "name": "VALYERMO FIRE STATION 2, CA US",
      "datacoverage": 1,
      "id": "COOP:049250",
      "elevationUnit": "METERS",
      "longitude": -117.86667
    },
    {
      "elevation": 1097.9,
      "mindate": "1931-01-01",
      "maxdate": "1971-12-01",
      "latitude": 34.45,
      "name": "VALYERMO FIRE STATION 2, CA US",
      "datacoverage": 1,
      "id": "COOP:049251",
      "elevationUnit": "METERS",
      "longitude": -117.86667
    },
    {
      "elevation": 211.8,
      "mindate": "1931-01-01",
      "maxdate": "1995-12-01",
      "latitude": 34.18333,
      "name": "VAN NUYS FC15A, CA US",
      "datacoverage": 0.9718,
      "id": "COOP:049260",
      "elevationUnit": "METERS",
      "longitude": -118.45
    },
    {
      "elevation": 962.3,
      "mindate": "1931-01-01",
      "maxdate": "2012-12-01",
      "latitude": 34.4883,
      "name": "VINCENT, CA US",
      "datacoverage": 0.9405,
      "id": "COOP:049345",
      "elevationUnit": "METERS",
      "longitude": -118.1419
    },
    {
      "elevation": 148.7,
      "mindate": "1942-02-01",
      "maxdate": "2000-08-01",
      "latitude": 34.00167,
      "name": "WALNUT NI FC102C, CA US",
      "datacoverage": 0.9943,
      "id": "COOP:049431",
      "elevationUnit": "METERS",
      "longitude": -117.86583
    },
    {
      "elevation": 135.9,
      "mindate": "1931-01-01",
      "maxdate": "2013-12-01",
      "latitude": 33.9758,
      "name": "WHITTIER CITY YARD FC106C, CA US",
      "datacoverage": 0.9377,
      "id": "COOP:049660",
      "elevationUnit": "METERS",
      "longitude": -118.0222
    },
    {
      "elevation": 61,
      "mindate": "1972-09-01",
      "maxdate": "2012-12-01",
      "latitude": 34.0199,
      "name": "WHITTIER NARROWS DAM, CA US",
      "datacoverage": 0.0214,
      "id": "COOP:049666",
      "elevationUnit": "METERS",
      "longitude": -118.0838
    },
    {
      "elevation": 240.8,
      "mindate": "2006-09-01",
      "maxdate": "2015-11-01",
      "latitude": 34.1819,
      "name": "WOODLAND HILLS PIERCE COLLEGE, CA US",
      "datacoverage": 1,
      "id": "COOP:049785",
      "elevationUnit": "METERS",
      "longitude": -118.5744
    },
    {
      "elevation": 106.7,
      "mindate": "1931-01-01",
      "maxdate": "2007-06-01",
      "latitude": 33.89,
      "name": "YORBA LINDA, CA US",
      "datacoverage": 0.7408,
      "id": "COOP:049847",
      "elevationUnit": "METERS",
      "longitude": -117.8188
    },
    {
      "elevation": 155.8,
      "mindate": "2008-09-01",
      "maxdate": "2024-05-24",
      "latitude": 34.1689,
      "name": "GLENDALE 2.4 WSW, CA US",
      "datacoverage": 1,
      "id": "GHCND:US1CALA0001",
      "elevationUnit": "METERS",
      "longitude": -118.2947
    },
    {
      "elevation": 88.1,
      "mindate": "2008-10-01",
      "maxdate": "2019-12-04",
      "latitude": 33.937285,
      "name": "WHITTIER 3.6 ESE, CA US",
      "datacoverage": 0.3889,
      "id": "GHCND:US1CALA0002",
      "elevationUnit": "METERS",
      "longitude": -117.984379
    },
    {
      "elevation": 61,
      "mindate": "1998-06-01",
      "maxdate": "2022-06-04",
      "latitude": 33.79018,
      "name": "TORRANCE 2.8 SW, CA US",
      "datacoverage": 0.9754,
      "id": "GHCND:US1CALA0003",
      "elevationUnit": "METERS",
      "longitude": -118.33689
    },
    {
      "elevation": 403.3,
      "mindate": "2008-11-01",
      "maxdate": "2024-03-07",
      "latitude": 34.187426,
      "name": "ALTADENA 0.7 ESE, CA US",
      "datacoverage": 1,
      "id": "GHCND:US1CALA0005",
      "elevationUnit": "METERS",
      "longitude": -118.124477
    },
    {
      "elevation": 45.1,
      "mindate": "2008-12-01",
      "maxdate": "2009-09-04",
      "latitude": 34.01655,
      "name": "SANTA MONICA 1.9 E, CA US",
      "datacoverage": 0.9011,
      "id": "GHCND:US1CALA0006",
      "elevationUnit": "METERS",
      "longitude": -118.459786
    },
    {
      "elevation": 272.5,
      "mindate": "2008-11-01",
      "maxdate": "2012-11-18",
      "latitude": 34.180539,
      "name": "WOODLAND HILLS 2.6 WNW, CA US",
      "datacoverage": 0.9799,
      "id": "GHCND:US1CALA0007",
      "elevationUnit": "METERS",
      "longitude": -118.649677
    },
    {
      "elevation": 207.9,
      "mindate": "2008-12-01",
      "maxdate": "2017-03-06",
      "latitude": 34.0786,
      "name": "MONTE NIDO 0.2 SSW, CA US",
      "datacoverage": 1,
      "id": "GHCND:US1CALA0008",
      "elevationUnit": "METERS",
      "longitude": -118.687
    },
    {
      "elevation": 194.5,
      "mindate": "2008-12-01",
      "maxdate": "2020-08-08",
      "latitude": 34.154267,
      "name": "SHERMAN OAKS 1.7 ENE, CA US",
      "datacoverage": 1,
      "id": "GHCND:US1CALA0009",
      "elevationUnit": "METERS",
      "longitude": -118.419999
    },
    {
      "elevation": 52.1,
      "mindate": "2009-02-01",
      "maxdate": "2025-11-01",
      "latitude": 33.986232,
      "name": "WHITTIER 2.9 WNW, CA US",
      "datacoverage": 1,
      "id": "GHCND:US1CALA0010",
      "elevationUnit": "METERS",
      "longitude": -118.066418
    },
    {
      "elevation": 35.7,
      "mindate": "2009-10-01",
      "maxdate": "2017-11-05",
      "latitude": 33.819239,
      "name": "REDONDO BEACH 2.6 S, CA US",
      "datacoverage": 1,
      "id": "GHCND:US1CALA0011",
      "elevationUnit": "METERS",
      "longitude": -118.377093
    },
    {
      "elevation": 234.1,
      "mindate": "2009-07-01",
      "maxdate": "2013-05-06",
      "latitude": 34.203289,
      "name": "WINNETKA 0.7 SSE, CA US",
      "datacoverage": 1,
      "id": "GHCND:US1CALA0012",
      "elevationUnit": "METERS",
      "longitude": -118.568
    },
    {
      "elevation": 32.9,
      "mindate": "2009-09-01",
      "maxdate": "2012-04-26",
      "latitude": 33.950549,
      "name": "SOUTH GATE 1.1 WNW, CA US",
      "datacoverage": 0.5944,
      "id": "GHCND:US1CALA0013",
      "elevationUnit": "METERS",
      "longitude": -118.208863
    },
    {
      "elevation": 492.9,
      "mindate": "2010-01-01",
      "maxdate": "2025-10-15",
      "latitude": 34.4268,
      "name": "CANYON COUNTRY 2.6 E, CA US",
      "datacoverage": 1,
      "id": "GHCND:US1CALA0014",
      "elevationUnit": "METERS",
      "longitude": -118.4275
    },
    {
      "elevation": 446.5,
      "mindate": "2010-01-01",
      "maxdate": "2018-05-13",
      "latitude": 34.120951,
      "name": "CLAREMONT 0.5 E, CA US",
      "datacoverage": 0.907,
      "id": "GHCND:US1CALA0015",
      "elevationUnit": "METERS",
      "longitude": -117.706846
    },
    {
      "elevation": 198.7,
      "mindate": "2010-03-01",
      "maxdate": "2025-10-24",
      "latitude": 34.161742,
      "name": "ARCADIA 2.1 NNE, CA US",
      "datacoverage": 0.9448,
      "id": "GHCND:US1CALA0021",
      "elevationUnit": "METERS",
      "longitude": -118.028495
    },
    {
      "elevation": 285,
      "mindate": "2010-07-01",
      "maxdate": "2022-06-12",
      "latitude": 34.02319,
      "name": "DIAMOND BAR 1.9 NNE, CA US",
      "datacoverage": 0.9993,
      "id": "GHCND:US1CALA0023",
      "elevationUnit": "METERS",
      "longitude": -117.79646
    },
    {
      "elevation": 4.6,
      "mindate": "2011-08-01",
      "maxdate": "2012-03-18",
      "latitude": 33.84374,
      "name": "CARSON 0.7 NW, CA US",
      "datacoverage": 0.998,
      "id": "GHCND:US1CALA0029",
      "elevationUnit": "METERS",
      "longitude": -118.264861
    },
    {
      "elevation": 205.7,
      "mindate": "2011-01-01",
      "maxdate": "2023-03-22",
      "latitude": 34.1712429,
      "name": "LOS ANGELES 4.3 NNW, CA US",
      "datacoverage": 1,
      "id": "GHCND:US1CALA0030",
      "elevationUnit": "METERS",
      "longitude": -118.435285
    },
    {
      "elevation": 721.2,
      "mindate": "2011-02-01",
      "maxdate": "2020-05-27",
      "latitude": 34.718443,
      "name": "LANCASTER 6.5 ENE, CA US",
      "datacoverage": 1,
      "id": "GHCND:US1CALA0031",
      "elevationUnit": "METERS",
      "longitude": -118.065884
    },
    {
      "elevation": 264.6,
      "mindate": "2011-04-01",
      "maxdate": "2011-09-30",
      "latitude": 34.1988,
      "name": "BURBANK 1.1 ENE, CA US",
      "datacoverage": 0.998,
      "id": "GHCND:US1CALA0033",
      "elevationUnit": "METERS",
      "longitude": -118.3093
    },
    {
      "elevation": 601.7,
      "mindate": "1998-06-01",
      "maxdate": "2015-12-19",
      "latitude": 34.26996,
      "name": "LA CRESCENTA MONTROSE 3.9 NW, CA US",
      "datacoverage": 0.2417,
      "id": "GHCND:US1CALA0034",
      "elevationUnit": "METERS",
      "longitude": -118.287375
    },
    {
      "elevation": 330.1,
      "mindate": "2011-11-01",
      "maxdate": "2013-05-09",
      "latitude": 33.77983,
      "name": "RANCHO PALOS VERDES 2.0 NW, CA US",
      "datacoverage": 1,
      "id": "GHCND:US1CALA0035",
      "elevationUnit": "METERS",
      "longitude": -118.38522
    },
    {
      "elevation": 225.2,
      "mindate": "2011-07-01",
      "maxdate": "2025-10-15",
      "latitude": 34.13916,
      "name": "PASADENA 2.0 SE, CA US",
      "datacoverage": 0.9994,
      "id": "GHCND:US1CALA0036",
      "elevationUnit": "METERS",
      "longitude": -118.11611
    },
    {
      "elevation": 14.6,
      "mindate": "2012-12-01",
      "maxdate": "2025-10-15",
      "latitude": 33.776585,
      "name": "LONG BEACH 1.1 SE, CA US",
      "datacoverage": 0.6753,
      "id": "GHCND:US1CALA0038",
      "elevationUnit": "METERS",
      "longitude": -118.146667
    },
    {
      "elevation": 309.1,
      "mindate": "2012-11-01",
      "maxdate": "2025-10-15",
      "latitude": 33.775345,
      "name": "RANCHO PALOS VERDES 1.3 NNW, CA US",
      "datacoverage": 0.9819,
      "id": "GHCND:US1CALA0039",
      "elevationUnit": "METERS",
      "longitude": -118.370416
    },
    {
      "elevation": 377.6,
      "mindate": "2012-10-01",
      "maxdate": "2015-05-03",
      "latitude": 34.27934,
      "name": "SAN FERNANDO 4.2 E, CA US",
      "datacoverage": 1,
      "id": "GHCND:US1CALA0041",
      "elevationUnit": "METERS",
      "longitude": -118.36301
    },
    {
      "elevation": 277.7,
      "mindate": "2013-10-01",
      "maxdate": "2025-11-02",
      "latitude": 34.16192,
      "name": "PASADENA 1.8 E, CA US",
      "datacoverage": 1,
      "id": "GHCND:US1CALA0043",
      "elevationUnit": "METERS",
      "longitude": -118.107335
    },
    {
      "elevation": 28,
      "mindate": "2013-08-01",
      "maxdate": "2019-08-17",
      "latitude": 33.833958,
      "name": "TORRANCE 0.7 E, CA US",
      "datacoverage": 1,
      "id": "GHCND:US1CALA0044",
      "elevationUnit": "METERS",
      "longitude": -118.328091
    },
    {
      "elevation": 570.6,
      "mindate": "2012-05-01",
      "maxdate": "2019-06-17",
      "latitude": 34.2406349182129,
      "name": "LA CRESCENTA MONTROSE 1.6 WNW, CA US",
      "datacoverage": 0.9194,
      "id": "GHCND:US1CALA0046",
      "elevationUnit": "METERS",
      "longitude": -118.261100769043
    },
    {
      "elevation": 56.7,
      "mindate": "2014-04-01",
      "maxdate": "2024-02-23",
      "latitude": 34.0317628,
      "name": "SANTA MONICA 1.3 NNE, CA US",
      "datacoverage": 0.9993,
      "id": "GHCND:US1CALA0048",
      "elevationUnit": "METERS",
      "longitude": -118.4852755
    },
    {
      "elevation": 7,
      "mindate": "2014-07-01",
      "maxdate": "2017-05-08",
      "latitude": 33.986,
      "name": "CULVER CITY 1.6 SSW, CA US",
      "datacoverage": 0.9987,
      "id": "GHCND:US1CALA0049",
      "elevationUnit": "METERS",
      "longitude": -118.409019
    },
    {
      "elevation": 740.4,
      "mindate": "2014-09-01",
      "maxdate": "2017-08-14",
      "latitude": 34.680183,
      "name": "LANCASTER 3.9 ESE, CA US",
      "datacoverage": 1,
      "id": "GHCND:US1CALA0051",
      "elevationUnit": "METERS",
      "longitude": -118.110252
    },
    {
      "elevation": 329.2,
      "mindate": "2014-11-01",
      "maxdate": "2020-05-30",
      "latitude": 34.140575,
      "name": "CALABASAS 1.9 E, CA US",
      "datacoverage": 1,
      "id": "GHCND:US1CALA0054",
      "elevationUnit": "METERS",
      "longitude": -118.628128
    },
    {
      "elevation": 33.5,
      "mindate": "2015-03-02",
      "maxdate": "2022-03-29",
      "latitude": 33.786674,
      "name": "LOMITA 0.6 SE, CA US",
      "datacoverage": 0.0553,
      "id": "GHCND:US1CALA0057",
      "elevationUnit": "METERS",
      "longitude": -118.310462
    },
    {
      "elevation": 290.5,
      "mindate": "2015-09-23",
      "maxdate": "2020-05-19",
      "latitude": 34.037367,
      "name": "POMONA 1.8 SW, CA US",
      "datacoverage": 0.0776,
      "id": "GHCND:US1CALA0059",
      "elevationUnit": "METERS",
      "longitude": -117.778839
    },
    {
      "elevation": 475.8,
      "mindate": "2015-10-04",
      "maxdate": "2024-04-15",
      "latitude": 34.406421,
      "name": "SANTA CLARITA 1.4 ESE, CA US",
      "datacoverage": 0.1953,
      "id": "GHCND:US1CALA0060",
      "elevationUnit": "METERS",
      "longitude": -118.486567
    },
    {
      "elevation": 331.9,
      "mindate": "2016-01-01",
      "maxdate": "2020-04-08",
      "latitude": 34.179095,
      "name": "ALTADENA 1.9 ESE, CA US",
      "datacoverage": 0.7234,
      "id": "GHCND:US1CALA0063",
      "elevationUnit": "METERS",
      "longitude": -118.10471
    },
    {
      "elevation": 123.4,
      "mindate": "2016-01-24",
      "maxdate": "2025-11-02",
      "latitude": 34.080912,
      "name": "LOS ANGELES 2.6 NW, CA US",
      "datacoverage": 1,
      "id": "GHCND:US1CALA0064",
      "elevationUnit": "METERS",
      "longitude": -118.272927
    },
    {
      "elevation": 84.7,
      "mindate": "2016-02-25",
      "maxdate": "2019-02-06",
      "latitude": 34.0473,
      "name": "PACIFIC PALISADES 1.3 NW, CA US",
      "datacoverage": 0.998,
      "id": "GHCND:US1CALA0066",
      "elevationUnit": "METERS",
      "longitude": -118.5326
    },
    {
      "elevation": 381.3,
      "mindate": "2016-03-01",
      "maxdate": "2025-10-15",
      "latitude": 34.389781,
      "name": "SANTA CLARITA 3.1 WSW, CA US",
      "datacoverage": 0.48,
      "id": "GHCND:US1CALA0067",
      "elevationUnit": "METERS",
      "longitude": -118.556905
    },
    {
      "elevation": 18,
      "mindate": "2016-04-26",
      "maxdate": "2025-11-03",
      "latitude": 33.8675,
      "name": "ARTESIA 0.5 W, CA US",
      "datacoverage": 0.9442,
      "id": "GHCND:US1CALA0068",
      "elevationUnit": "METERS",
      "longitude": -118.089
    },
    {
      "elevation": 134.4,
      "mindate": "2017-09-09",
      "maxdate": "2019-04-03",
      "latitude": 33.739491,
      "name": "SAN PEDRO 1.4 W, CA US",
      "datacoverage": 0.6617,
      "id": "GHCND:US1CALA0075",
      "elevationUnit": "METERS",
      "longitude": -118.316893
    },
    {
      "elevation": 734,
      "mindate": "2017-10-01",
      "maxdate": "2025-10-15",
      "latitude": 34.6831252,
      "name": "LANCASTER 5.5 E, CA US",
      "datacoverage": 0.5508,
      "id": "GHCND:US1CALA0077",
      "elevationUnit": "METERS",
      "longitude": -118.080219
    },
    {
      "elevation": 25,
      "mindate": "2017-11-01",
      "maxdate": "2019-05-12",
      "latitude": 33.829854,
      "name": "REDONDO BEACH 2.0 SSW, CA US",
      "datacoverage": 1,
      "id": "GHCND:US1CALA0078",
      "elevationUnit": "METERS",
      "longitude": -118.388171
    },
    {
      "elevation": 293.2,
      "mindate": "2018-01-07",
      "maxdate": "2025-11-03",
      "latitude": 34.13545,
      "name": "GLENDORA 1.4 ESE, CA US",
      "datacoverage": 1,
      "id": "GHCND:US1CALA0081",
      "elevationUnit": "METERS",
      "longitude": -117.82381
    },
    {
      "elevation": 628.8,
      "mindate": "2018-03-21",
      "maxdate": "2025-10-22",
      "latitude": 34.23706,
      "name": "LA CRESCENTA MONTROSE 0.3 NE, CA US",
      "datacoverage": 0.8374,
      "id": "GHCND:US1CALA0083",
      "elevationUnit": "METERS",
      "longitude": -118.23181
    },
    {
      "elevation": 246,
      "mindate": "2018-03-29",
      "maxdate": "2025-10-21",
      "latitude": 34.100018,
      "name": "SOUTH PASADENA 3.7 WSW, CA US",
      "datacoverage": 0.2091,
      "id": "GHCND:US1CALA0085",
      "elevationUnit": "METERS",
      "longitude": -118.219608
    },
    {
      "elevation": 368.8,
      "mindate": "2018-11-29",
      "maxdate": "2020-03-13",
      "latitude": 34.4371,
      "name": "VALENCIA 1.7 SE, CA US",
      "datacoverage": 0.2208,
      "id": "GHCND:US1CALA0087",
      "elevationUnit": "METERS",
      "longitude": -118.552
    },
    {
      "elevation": 241.1,
      "mindate": "2018-10-17",
      "maxdate": "2025-11-03",
      "latitude": 34.100379,
      "name": "SOUTH PASADENA 0.9 SSW, CA US",
      "datacoverage": 0.9208,
      "id": "GHCND:US1CALA0089",
      "elevationUnit": "METERS",
      "longitude": -118.165409
    },
    {
      "elevation": 267.9,
      "mindate": "2019-01-01",
      "maxdate": "2025-10-22",
      "latitude": 34.15343,
      "name": "GLENDALE 3.0 ESE, CA US",
      "datacoverage": 1,
      "id": "GHCND:US1CALA0090",
      "elevationUnit": "METERS",
      "longitude": -118.20978
    },
    {
      "elevation": 289,
      "mindate": "2019-02-07",
      "maxdate": "2024-02-05",
      "latitude": 34.164802,
      "name": "PASADENA 0.8 ENE, CA US",
      "datacoverage": 1,
      "id": "GHCND:US1CALA0091",
      "elevationUnit": "METERS",
      "longitude": -118.124917
    },
    {
      "elevation": 0.9,
      "mindate": "2019-05-13",
      "maxdate": "2024-05-31",
      "latitude": 33.827393,
      "name": "REDONDO BEACH 2.1 SSW, CA US",
      "datacoverage": 1,
      "id": "GHCND:US1CALA0092",
      "elevationUnit": "METERS",
      "longitude": -118.388804
    },
    {
      "elevation": 416.7,
      "mindate": "2019-08-15",
      "maxdate": "2025-10-14",
      "latitude": 34.11355,
      "name": "CLAREMONT 0.6 SSE, CA US",
      "datacoverage": 0.9711,
      "id": "GHCND:US1CALA0096",
      "elevationUnit": "METERS",
      "longitude": -117.71131
    },
    {
      "elevation": 85,
      "mindate": "2019-07-01",
      "maxdate": "2025-10-22",
      "latitude": 33.721466,
      "name": "ROLLING HILLS 3.9 SE, CA US",
      "datacoverage": 0.7748,
      "id": "GHCND:US1CALA0097",
      "elevationUnit": "METERS",
      "longitude": -118.295421
    },
    {
      "elevation": 225.9,
      "mindate": "2020-07-19",
      "maxdate": "2022-03-24",
      "latitude": 34.1977,
      "name": "SAN FERNANDO 7.8 SW, CA US",
      "datacoverage": 0.9739,
      "id": "GHCND:US1CALA0104",
      "elevationUnit": "METERS",
      "longitude": -118.5138
    },
    {
      "elevation": 433.1,
      "mindate": "2020-11-08",
      "maxdate": "2025-10-15",
      "latitude": 34.115891,
      "name": "CLAREMONT 0.7 SE, CA US",
      "datacoverage": 0.1248,
      "id": "GHCND:US1CALA0106",
      "elevationUnit": "METERS",
      "longitude": -117.705592
    },
    {
      "elevation": 316.4,
      "mindate": "2020-10-31",
      "maxdate": "2022-08-11",
      "latitude": 34.167445,
      "name": "AGOURA HILLS 1.3 NNE, CA US",
      "datacoverage": 1,
      "id": "GHCND:US1CALA0108",
      "elevationUnit": "METERS",
      "longitude": -118.749423
    },
    {
      "elevation": 349.3,
      "mindate": "2020-11-07",
      "maxdate": "2024-04-14",
      "latitude": 34.1904966,
      "name": "ALTADENA 1.7 W, CA US",
      "datacoverage": 0.1012,
      "id": "GHCND:US1CALA0109",
      "elevationUnit": "METERS",
      "longitude": -118.1647785
    },
    {
      "elevation": 452.9,
      "mindate": "2021-03-01",
      "maxdate": "2021-12-23",
      "latitude": 34.4723,
      "name": "SANTA CLARITA 4.3 NNW, CA US",
      "datacoverage": 0.9819,
      "id": "GHCND:US1CALA0112",
      "elevationUnit": "METERS",
      "longitude": -118.534
    },
    {
      "elevation": 234.7,
      "mindate": "2021-03-25",
      "maxdate": "2025-11-03",
      "latitude": 34.18622,
      "name": "HIDDEN HILLS 6.0 ENE, CA US",
      "datacoverage": 0.9998,
      "id": "GHCND:US1CALA0113",
      "elevationUnit": "METERS",
      "longitude": -118.55766
    },
    {
      "elevation": 25.9,
      "mindate": "2021-10-25",
      "maxdate": "2025-10-22",
      "latitude": 33.832748,
      "name": "TORRANCE 1.0 E, CA US",
      "datacoverage": 0.1158,
      "id": "GHCND:US1CALA0116",
      "elevationUnit": "METERS",
      "longitude": -118.324034
    },
    {
      "elevation": 172.2,
      "mindate": "2023-01-17",
      "maxdate": "2025-06-04",
      "latitude": 34.022231,
      "name": "WALNUT 0.5 SSW, CA US",
      "datacoverage": 0.5367,
      "id": "GHCND:US1CALA0120",
      "elevationUnit": "METERS",
      "longitude": -117.861128
    },
    {
      "elevation": 370.9,
      "mindate": "2023-04-14",
      "maxdate": "2025-10-22",
      "latitude": 34.135149,
      "name": "SAN DIMAS 2.2 NE, CA US",
      "datacoverage": 1,
      "id": "GHCND:US1CALA0122",
      "elevationUnit": "METERS",
      "longitude": -117.784687
    },
    {
      "elevation": 9.8,
      "mindate": "2023-04-13",
      "maxdate": "2025-10-17",
      "latitude": 33.81348,
      "name": "LOS ALAMITOS 1.4 NW, CA US",
      "datacoverage": 0.8433,
      "id": "GHCND:US1CALA0123",
      "elevationUnit": "METERS",
      "longitude": -118.07576
    },
    {
      "elevation": 234.1,
      "mindate": "2023-04-29",
      "maxdate": "2025-11-03",
      "latitude": 34.1336,
      "name": "PASADENA 1.9 S, CA US",
      "datacoverage": 0.636,
      "id": "GHCND:US1CALA0124",
      "elevationUnit": "METERS",
      "longitude": -118.1416
    },
    {
      "elevation": 221.3,
      "mindate": "2023-05-01",
      "maxdate": "2025-11-03",
      "latitude": 34.094885,
      "name": "SAN DIMAS 2.1 WSW, CA US",
      "datacoverage": 0.9641,
      "id": "GHCND:US1CALA0129",
      "elevationUnit": "METERS",
      "longitude": -117.840428
    },
    {
      "elevation": 397.8,
      "mindate": "2023-04-29",
      "maxdate": "2025-06-04",
      "latitude": 34.4414,
      "name": "SANTA CLARITA 2.8 NW, CA US",
      "datacoverage": 0.4635,
      "id": "GHCND:US1CALA0130",
      "elevationUnit": "METERS",
      "longitude": -118.5454
    },
    {
      "elevation": 276.1,
      "mindate": "2023-05-13",
      "maxdate": "2025-11-03",
      "latitude": 34.242179,
      "name": "CHATSWORTH 0.7 SE, CA US",
      "datacoverage": 0.862,
      "id": "GHCND:US1CALA0132",
      "elevationUnit": "METERS",
      "longitude": -118.607942
    },
    {
      "elevation": 223.4,
      "mindate": "2023-07-01",
      "maxdate": "2024-08-06",
      "latitude": 33.9767,
      "name": "DIAMOND BAR 2.0 SW, CA US",
      "datacoverage": 0.9819,
      "id": "GHCND:US1CALA0133",
      "elevationUnit": "METERS",
      "longitude": -117.8357
    },
    {
      "elevation": 325.5,
      "mindate": "2024-04-12",
      "maxdate": "2025-10-23",
      "latitude": 34.16539722,
      "name": "AGOURA HILLS 1.2 NNE, CA US",
      "datacoverage": 0.9989,
      "id": "GHCND:US1CALA0138",
      "elevationUnit": "METERS",
      "longitude": -118.74931111
    },
    {
      "elevation": 21.6,
      "mindate": "2024-06-01",
      "maxdate": "2025-10-29",
      "latitude": 33.833568,
      "name": "REDONDO BEACH 1.7 SSW, CA US",
      "datacoverage": 1,
      "id": "GHCND:US1CALA0139",
      "elevationUnit": "METERS",
      "longitude": -118.386606
    },
    {
      "elevation": 247.2,
      "mindate": "2008-10-01",
      "maxdate": "2025-10-15",
      "latitude": 33.82906,
      "name": "ORANGE 3.5 ENE, CA US",
      "datacoverage": 1,
      "id": "GHCND:US1CAOR0001",
      "elevationUnit": "METERS",
      "longitude": -117.77
    },
    {
      "elevation": 110,
      "mindate": "2008-07-01",
      "maxdate": "2009-02-13",
      "latitude": 33.864511,
      "name": "YORBA LINDA 1.9 SSW, CA US",
      "datacoverage": 1,
      "id": "GHCND:US1CAOR0003",
      "elevationUnit": "METERS",
      "longitude": -117.781442
    },
    {
      "elevation": 24.7,
      "mindate": "2009-02-01",
      "maxdate": "2012-11-04",
      "latitude": 33.7314,
      "name": "SANTA ANA 0.7 ESE, CA US",
      "datacoverage": 0.9512,
      "id": "GHCND:US1CAOR0011",
      "elevationUnit": "METERS",
      "longitude": -117.8713
    },
    {
      "elevation": 78,
      "mindate": "2009-02-01",
      "maxdate": "2011-02-14",
      "latitude": 33.868482,
      "name": "PLACENTIA 2.1 ESE, CA US",
      "datacoverage": 1,
      "id": "GHCND:US1CAOR0013",
      "elevationUnit": "METERS",
      "longitude": -117.821767
    },
    {
      "elevation": 90.8,
      "mindate": "2010-01-01",
      "maxdate": "2025-11-01",
      "latitude": 33.863231,
      "name": "ANAHEIM 4.9 ENE, CA US",
      "datacoverage": 1,
      "id": "GHCND:US1CAOR0021",
      "elevationUnit": "METERS",
      "longitude": -117.791753
    },
    {
      "elevation": 268.5,
      "mindate": "2010-08-01",
      "maxdate": "2014-05-08",
      "latitude": 33.835016,
      "name": "ANAHEIM HILLS 1.1 SE, CA US",
      "datacoverage": 0.5,
      "id": "GHCND:US1CAOR0022",
      "elevationUnit": "METERS",
      "longitude": -117.76208
    },
    {
      "elevation": 46.3,
      "mindate": "2011-10-01",
      "maxdate": "2025-11-03",
      "latitude": 33.718295,
      "name": "IRVINE 4.1 NNE, CA US",
      "datacoverage": 0.9998,
      "id": "GHCND:US1CAOR0027",
      "elevationUnit": "METERS",
      "longitude": -117.772144
    },
    {
      "elevation": 25.9,
      "mindate": "2011-10-01",
      "maxdate": "2021-12-26",
      "latitude": 33.775278,
      "name": "GARDEN GROVE 0.8 ESE, CA US",
      "datacoverage": 0.648,
      "id": "GHCND:US1CAOR0028",
      "elevationUnit": "METERS",
      "longitude": -117.94621
    },
    {
      "elevation": 114,
      "mindate": "2011-11-01",
      "maxdate": "2018-02-27",
      "latitude": 33.846975,
      "name": "ANAHEIM 4.9 E, CA US",
      "datacoverage": 1,
      "id": "GHCND:US1CAOR0029",
      "elevationUnit": "METERS",
      "longitude": -117.787126
    },
    {
      "elevation": 197.8,
      "mindate": "2012-04-01",
      "maxdate": "2025-11-03",
      "latitude": 33.8261413574219,
      "name": "ORANGE 3.0 ENE, CA US",
      "datacoverage": 1,
      "id": "GHCND:US1CAOR0031",
      "elevationUnit": "METERS",
      "longitude": -117.778053283691
    },
    {
      "elevation": 230.1,
      "mindate": "2014-07-01",
      "maxdate": "2025-10-30",
      "latitude": 33.852135,
      "name": "ANAHEIM 7.3 E, CA US",
      "datacoverage": 0.9987,
      "id": "GHCND:US1CAOR0039",
      "elevationUnit": "METERS",
      "longitude": -117.746946
    },
    {
      "elevation": 33.5,
      "mindate": "2015-05-01",
      "maxdate": "2025-11-03",
      "latitude": 33.765549,
      "name": "SANTA ANA 2.0 N, CA US",
      "datacoverage": 0.9965,
      "id": "GHCND:US1CAOR0042",
      "elevationUnit": "METERS",
      "longitude": -117.887786
    },
    {
      "elevation": 8.5,
      "mindate": "2016-10-17",
      "maxdate": "2023-01-16",
      "latitude": 33.816667,
      "name": "CYPRESS 1.0 W, CA US",
      "datacoverage": 0.2197,
      "id": "GHCND:US1CAOR0052",
      "elevationUnit": "METERS",
      "longitude": -118.055
    },
    {
      "elevation": 14.6,
      "mindate": "2018-03-10",
      "maxdate": "2025-11-03",
      "latitude": 33.82952,
      "name": "CYPRESS 1.1 NNW KB6CYS, CA US",
      "datacoverage": 0.9993,
      "id": "GHCND:US1CAOR0061",
      "elevationUnit": "METERS",
      "longitude": -118.04695
    },
    {
      "elevation": 18.6,
      "mindate": "2018-03-21",
      "maxdate": "2025-11-01",
      "latitude": 33.8531881,
      "name": "LA PALMA 0.6 WNW, CA US",
      "datacoverage": 0.9224,
      "id": "GHCND:US1CAOR0067",
      "elevationUnit": "METERS",
      "longitude": -118.048944
    },
    {
      "elevation": 96.3,
      "mindate": "2019-01-01",
      "maxdate": "2025-10-13",
      "latitude": 33.873,
      "name": "YORBA LINDA 2.2 WSW, CA US",
      "datacoverage": 0.981,
      "id": "GHCND:US1CAOR0072",
      "elevationUnit": "METERS",
      "longitude": -117.7995
    },
    {
      "elevation": 117.3,
      "mindate": "2019-04-01",
      "maxdate": "2025-11-03",
      "latitude": 33.788592,
      "name": "ORANGE 2.1 ESE, CA US",
      "datacoverage": 0.9805,
      "id": "GHCND:US1CAOR0077",
      "elevationUnit": "METERS",
      "longitude": -117.792437
    },
    {
      "elevation": 8.2,
      "mindate": "2019-04-29",
      "maxdate": "2025-10-15",
      "latitude": 33.75042,
      "name": "HUNTINGTON BEACH 4.1 N, CA US",
      "datacoverage": 0.0957,
      "id": "GHCND:US1CAOR0080",
      "elevationUnit": "METERS",
      "longitude": -118.02009
    },
    {
      "elevation": 11.3,
      "mindate": "2021-01-23",
      "maxdate": "2022-04-30",
      "latitude": 33.85039,
      "name": "LA PALMA 0.5 W, CA US",
      "datacoverage": 0.9956,
      "id": "GHCND:US1CAOR0090",
      "elevationUnit": "METERS",
      "longitude": -118.047965
    },
    {
      "elevation": 41.1,
      "mindate": "2023-08-19",
      "maxdate": "2025-11-03",
      "latitude": 33.76949,
      "name": "SANTA ANA 2.3 N, CA US",
      "datacoverage": 0.9999,
      "id": "GHCND:US1CAOR0105",
      "elevationUnit": "METERS",
      "longitude": -117.87563
    },
    {
      "elevation": 4.6,
      "mindate": "2023-05-01",
      "maxdate": "2025-10-15",
      "latitude": 33.7237067443837,
      "name": "HUNTINGTON BEACH 2.6 NNW, CA US",
      "datacoverage": 0.9985,
      "id": "GHCND:US1CAOR0106",
      "elevationUnit": "METERS",
      "longitude": -118.030883450789
    },
    {
      "elevation": 1873.9,
      "mindate": "2008-10-01",
      "maxdate": "2018-03-22",
      "latitude": 34.36508,
      "name": "WRIGHTWOOD 1.2 WNW, CA US",
      "datacoverage": 1,
      "id": "GHCND:US1CASR0003",
      "elevationUnit": "METERS",
      "longitude": -117.65111
    },
    {
      "elevation": 431.3,
      "mindate": "2008-11-01",
      "maxdate": "2016-09-29",
      "latitude": 34.11506,
      "name": "UPLAND 0.5 ESE, CA US",
      "datacoverage": 0.9666,
      "id": "GHCND:US1CASR0004",
      "elevationUnit": "METERS",
      "longitude": -117.649803
    },
    {
      "elevation": 351.1,
      "mindate": "2009-12-01",
      "maxdate": "2010-05-14",
      "latitude": 34.08566,
      "name": "MONTCLAIR 1.2 NE, CA US",
      "datacoverage": 1,
      "id": "GHCND:US1CASR0018",
      "elevationUnit": "METERS",
      "longitude": -117.6816
    },
    {
      "elevation": 583.7,
      "mindate": "2014-12-01",
      "maxdate": "2019-02-15",
      "latitude": 34.146599,
      "name": "UPLAND 2.0 NNW, CA US",
      "datacoverage": 1,
      "id": "GHCND:US1CASR0051",
      "elevationUnit": "METERS",
      "longitude": -117.665169
    },
    {
      "elevation": 542.2,
      "mindate": "2015-05-01",
      "maxdate": "2025-10-15",
      "latitude": 34.1442832946777,
      "name": "UPLAND 1.8 NNE, CA US",
      "datacoverage": 0.9965,
      "id": "GHCND:US1CASR0053",
      "elevationUnit": "METERS",
      "longitude": -117.649070739746
    },
    {
      "elevation": 220.7,
      "mindate": "2018-03-24",
      "maxdate": "2021-12-22",
      "latitude": 34.0089,
      "name": "CHINO 1.9 E, CA US",
      "datacoverage": 0.9994,
      "id": "GHCND:US1CASR0068",
      "elevationUnit": "METERS",
      "longitude": -117.6534
    },
    {
      "elevation": 509.6,
      "mindate": "2019-11-27",
      "maxdate": "2025-11-03",
      "latitude": 34.130768,
      "name": "UPLAND 0.9 NNW, CA US",
      "datacoverage": 0.9993,
      "id": "GHCND:US1CASR0074",
      "elevationUnit": "METERS",
      "longitude": -117.664406
    },
    {
      "elevation": 1909.9,
      "mindate": "2023-03-15",
      "maxdate": "2025-04-27",
      "latitude": 34.3617584787562,
      "name": "WRIGHTWOOD 1.1 W, CA US",
      "datacoverage": 1,
      "id": "GHCND:US1CASR0101",
      "elevationUnit": "METERS",
      "longitude": -117.650143688486
    },
    {
      "elevation": 210.9,
      "mindate": "2008-11-01",
      "maxdate": "2025-10-26",
      "latitude": 34.17716,
      "name": "THOUSAND OAKS 2.1 WSW, CA US",
      "datacoverage": 1,
      "id": "GHCND:US1CAVT0001",
      "elevationUnit": "METERS",
      "longitude": -118.8984
    },
    {
      "elevation": 329.5,
      "mindate": "2009-02-01",
      "maxdate": "2018-03-22",
      "latitude": 34.2306,
      "name": "SIMI VALLEY 3.8 SW, CA US",
      "datacoverage": 1,
      "id": "GHCND:US1CAVT0003",
      "elevationUnit": "METERS",
      "longitude": -118.804742
    },
    {
      "elevation": 216.1,
      "mindate": "2009-05-01",
      "maxdate": "2011-02-03",
      "latitude": 34.179158,
      "name": "NEWBURY PARK 0.4 SE, CA US",
      "datacoverage": 0.9099,
      "id": "GHCND:US1CAVT0004",
      "elevationUnit": "METERS",
      "longitude": -118.908619
    },
    {
      "elevation": 258.5,
      "mindate": "2010-10-01",
      "maxdate": "2016-07-01",
      "latitude": 34.272395,
      "name": "SIMI VALLEY 1.0 NW, CA US",
      "datacoverage": 0.9999,
      "id": "GHCND:US1CAVT0008",
      "elevationUnit": "METERS",
      "longitude": -118.763762
    },
    {
      "elevation": 214.3,
      "mindate": "2010-10-01",
      "maxdate": "2015-06-15",
      "latitude": 34.1787319,
      "name": "THOUSAND OAKS 2.5 WSW, CA US",
      "datacoverage": 1,
      "id": "GHCND:US1CAVT0009",
      "elevationUnit": "METERS",
      "longitude": -118.9086003
    },
    {
      "elevation": 162.8,
      "mindate": "2011-02-01",
      "maxdate": "2012-01-17",
      "latitude": 34.428,
      "name": "FILLMORE 2.1 NNW, CA US",
      "datacoverage": 1,
      "id": "GHCND:US1CAVT0010",
      "elevationUnit": "METERS",
      "longitude": -118.9331
    },
    {
      "elevation": 154.2,
      "mindate": "2012-01-01",
      "maxdate": "2014-11-16",
      "latitude": 34.408433,
      "name": "FILLMORE 0.6 N, CA US",
      "datacoverage": 1,
      "id": "GHCND:US1CAVT0013",
      "elevationUnit": "METERS",
      "longitude": -118.917151
    },
    {
      "elevation": 207.6,
      "mindate": "2013-03-01",
      "maxdate": "2017-12-02",
      "latitude": 34.2223,
      "name": "THOUSAND OAKS 2.7 NW, CA US",
      "datacoverage": 0.8102,
      "id": "GHCND:US1CAVT0014",
      "elevationUnit": "METERS",
      "longitude": -118.8975
    },
    {
      "elevation": 333.1,
      "mindate": "2015-08-01",
      "maxdate": "2025-11-03",
      "latitude": 34.2149236,
      "name": "THOUSAND OAKS 2.3 NE, CA US",
      "datacoverage": 0.998,
      "id": "GHCND:US1CAVT0018",
      "elevationUnit": "METERS",
      "longitude": -118.8366596
    },
    {
      "elevation": 276.1,
      "mindate": "2019-10-05",
      "maxdate": "2025-09-19",
      "latitude": 34.222724,
      "name": "THOUSAND OAKS 2.1 N, CA US",
      "datacoverage": 0.3133,
      "id": "GHCND:US1CAVT0028",
      "elevationUnit": "METERS",
      "longitude": -118.863737
    },
    {
      "elevation": 202.4,
      "mindate": "2020-09-29",
      "maxdate": "2025-11-03",
      "latitude": 34.179338,
      "name": "CASA CONEJO 0.8 ESE, CA US",
      "datacoverage": 0.9876,
      "id": "GHCND:US1CAVT0030",
      "elevationUnit": "METERS",
      "longitude": -118.929447
    },
    {
      "elevation": 273.4,
      "mindate": "2022-12-28",
      "maxdate": "2024-04-14",
      "latitude": 34.20038,
      "name": "THOUSAND OAKS 1.1 WNW, CA US",
      "datacoverage": 1,
      "id": "GHCND:US1CAVT0033",
      "elevationUnit": "METERS",
      "longitude": -118.885164
    },
    {
      "elevation": 863.5,
      "mindate": "1918-10-01",
      "maxdate": "2014-09-30",
      "latitude": 34.4938,
      "name": "ACTON ESCONDIDO CANYON, CA US",
      "datacoverage": 1,
      "id": "GHCND:USC00040014",
      "elevationUnit": "METERS",
      "longitude": -118.2713
    },
    {
      "elevation": 1310.6,
      "mindate": "1916-12-01",
      "maxdate": "1938-03-31",
      "latitude": 34.35,
      "name": "ALDER CREEK, CA US",
      "datacoverage": 0.8595,
      "id": "GHCND:USC00040080",
      "elevationUnit": "METERS",
      "longitude": -118.05
    },
    {
      "elevation": 721.5,
      "mindate": "1948-07-01",
      "maxdate": "1991-05-31",
      "latitude": 34.31667,
      "name": "ALISO CANYON FC 446, CA US",
      "datacoverage": 0.9573,
      "id": "GHCND:USC00040115",
      "elevationUnit": "METERS",
      "longitude": -118.55
    },
    {
      "elevation": 343.5,
      "mindate": "1922-01-01",
      "maxdate": "2025-07-31",
      "latitude": 34.18211,
      "name": "ALTADENA, CA US",
      "datacoverage": 1,
      "id": "GHCND:USC00040144",
      "elevationUnit": "METERS",
      "longitude": -118.13827
    },
    {
      "elevation": 70.7,
      "mindate": "1989-08-01",
      "maxdate": "2025-07-31",
      "latitude": 33.8647,
      "name": "ANAHEIM, CA US",
      "datacoverage": 1,
      "id": "GHCND:USC00040192",
      "elevationUnit": "METERS",
      "longitude": -117.8425
    },
    {
      "elevation": 371.9,
      "mindate": "1916-10-01",
      "maxdate": "1974-04-30",
      "latitude": 34.21667,
      "name": "ARROYO SECO RANGER STATION FC508, CA US",
      "datacoverage": 0.9755,
      "id": "GHCND:USC00040327",
      "elevationUnit": "METERS",
      "longitude": -118.16667
    },
    {
      "elevation": 103.9,
      "mindate": "1906-04-06",
      "maxdate": "1966-05-31",
      "latitude": 33.9,
      "name": "ASSOC OIL ANAHEIM 1, CA US",
      "datacoverage": 0.3648,
      "id": "GHCND:USC00040355",
      "elevationUnit": "METERS",
      "longitude": -117.88333
    },
    {
      "elevation": 185.9,
      "mindate": "1901-12-01",
      "maxdate": "1972-10-31",
      "latitude": 34.13333,
      "name": "AZUSA CITY PK FC 143, CA US",
      "datacoverage": 0.5911,
      "id": "GHCND:USC00040410",
      "elevationUnit": "METERS",
      "longitude": -117.9
    },
    {
      "elevation": 177.1,
      "mindate": "1941-11-01",
      "maxdate": "1966-03-31",
      "latitude": 33.93333,
      "name": "BARNESON PARK, CA US",
      "datacoverage": 0.8977,
      "id": "GHCND:USC00040509",
      "elevationUnit": "METERS",
      "longitude": -117.85
    },
    {
      "elevation": 164.9,
      "mindate": "1948-07-01",
      "maxdate": "1980-11-30",
      "latitude": 34.08333,
      "name": "BEL AIR FC 10A, CA US",
      "datacoverage": 0.9871,
      "id": "GHCND:USC00040619",
      "elevationUnit": "METERS",
      "longitude": -118.45
    },
    {
      "elevation": 281,
      "mindate": "1948-07-01",
      "maxdate": "1951-08-31",
      "latitude": 34.2,
      "name": "BELL CANYON PLATT RA, CA US",
      "datacoverage": 1,
      "id": "GHCND:USC00040625",
      "elevationUnit": "METERS",
      "longitude": -118.65
    },
    {
      "elevation": 484.9,
      "mindate": "1930-01-01",
      "maxdate": "1980-12-31",
      "latitude": 34.16667,
      "name": "BIG DALTON DAM FC223, CA US",
      "datacoverage": 0.9722,
      "id": "GHCND:USC00040758",
      "elevationUnit": "METERS",
      "longitude": -117.81667
    },
    {
      "elevation": 2086.4,
      "mindate": "1926-01-01",
      "maxdate": "2010-12-31",
      "latitude": 34.38333,
      "name": "BIG PINES PARK FC83B, CA US",
      "datacoverage": 1,
      "id": "GHCND:USC00040779",
      "elevationUnit": "METERS",
      "longitude": -117.68333
    },
    {
      "elevation": 709,
      "mindate": "1932-01-01",
      "maxdate": "2025-09-30",
      "latitude": 34.29481,
      "name": "BIG TUJUNGA DAM FC46, CA US",
      "datacoverage": 1,
      "id": "GHCND:USC00040798",
      "elevationUnit": "METERS",
      "longitude": -118.18849
    },
    {
      "elevation": 220.1,
      "mindate": "1948-07-01",
      "maxdate": "1951-08-31",
      "latitude": 34.18333,
      "name": "BIRMINGHAM GEN HOSPITAL, CA US",
      "datacoverage": 0.9734,
      "id": "GHCND:USC00040818",
      "elevationUnit": "METERS",
      "longitude": -118.5
    },
    {
      "elevation": 933,
      "mindate": "1940-07-01",
      "maxdate": "1978-03-31",
      "latitude": 34.58333,
      "name": "BOUQUET CANYON, CA US",
      "datacoverage": 0.989,
      "id": "GHCND:USC00041013",
      "elevationUnit": "METERS",
      "longitude": -118.36667
    },
    {
      "elevation": 107,
      "mindate": "1948-07-01",
      "maxdate": "1959-05-31",
      "latitude": 33.91667,
      "name": "BREA BERRY AND IMPER, CA US",
      "datacoverage": 0.9924,
      "id": "GHCND:USC00041054",
      "elevationUnit": "METERS",
      "longitude": -117.9
    },
    {
      "elevation": 116.1,
      "mindate": "1957-06-01",
      "maxdate": "1970-04-30",
      "latitude": 33.93333,
      "name": "BREA CITY SHAFFER TO, CA US",
      "datacoverage": 0.9292,
      "id": "GHCND:USC00041056",
      "elevationUnit": "METERS",
      "longitude": -117.9
    },
    {
      "elevation": 83.8,
      "mindate": "1948-01-01",
      "maxdate": "2013-03-31",
      "latitude": 33.8905,
      "name": "BREA DAM, CA US",
      "datacoverage": 0.9992,
      "id": "GHCND:USC00041057",
      "elevationUnit": "METERS",
      "longitude": -117.9263
    },
    {
      "elevation": 207,
      "mindate": "1930-01-01",
      "maxdate": "1972-10-31",
      "latitude": 34.18333,
      "name": "BURBANK FIRE DEPARTMENT FC226, CA US",
      "datacoverage": 1,
      "id": "GHCND:USC00041192",
      "elevationUnit": "METERS",
      "longitude": -118.3
    },
    {
      "elevation": 199.6,
      "mindate": "1939-12-01",
      "maxdate": "2025-11-02",
      "latitude": 34.1866,
      "name": "BURBANK VALLEY PUMP PLANT, CA US",
      "datacoverage": 0.988,
      "id": "GHCND:USC00041194",
      "elevationUnit": "METERS",
      "longitude": -118.348
    },
    {
      "elevation": 1304.8,
      "mindate": "1916-01-01",
      "maxdate": "1958-06-30",
      "latitude": 34.23333,
      "name": "MOUNT BALDY FC 85 G, CA US",
      "datacoverage": 0.902,
      "id": "GHCND:USC00041373",
      "elevationUnit": "METERS",
      "longitude": -117.65
    },
    {
      "elevation": 1296,
      "mindate": "1969-08-01",
      "maxdate": "1978-12-31",
      "latitude": 34.25,
      "name": "OPIDS CAMP FC 57 B E, CA US",
      "datacoverage": 1,
      "id": "GHCND:USC00041404",
      "elevationUnit": "METERS",
      "longitude": -118.1
    },
    {
      "elevation": 492.6,
      "mindate": "2013-01-01",
      "maxdate": "2013-03-31",
      "latitude": 33.923,
      "name": "CARBON CANYON GILMAN, CA US",
      "datacoverage": 1,
      "id": "GHCND:USC00041518",
      "elevationUnit": "METERS",
      "longitude": -117.7777
    },
    {
      "elevation": 359.7,
      "mindate": "1949-08-01",
      "maxdate": "1951-09-30",
      "latitude": 33.95806,
      "name": "CARBON CANYON WORKMA, CA US",
      "datacoverage": 0.962,
      "id": "GHCND:USC00041520",
      "elevationUnit": "METERS",
      "longitude": -117.77917
    },
    {
      "elevation": 305.1,
      "mindate": "1945-11-01",
      "maxdate": "1959-07-31",
      "latitude": 34.26667,
      "name": "CHATSWORTH HEYNEMANN, CA US",
      "datacoverage": 1,
      "id": "GHCND:USC00041679",
      "elevationUnit": "METERS",
      "longitude": -118.6
    },
    {
      "elevation": 289.6,
      "mindate": "1927-10-01",
      "maxdate": "2016-03-01",
      "latitude": 34.25,
      "name": "CHATSWORTH FC 24 F, CA US",
      "datacoverage": 1,
      "id": "GHCND:USC00041680",
      "elevationUnit": "METERS",
      "longitude": -118.6
    },
    {
      "elevation": 277.4,
      "mindate": "1948-07-01",
      "maxdate": "1951-08-31",
      "latitude": 34.2263,
      "name": "CHATSWORTH RESERVOIR, CA US",
      "datacoverage": 1,
      "id": "GHCND:USC00041682",
      "elevationUnit": "METERS",
      "longitude": -118.6169
    },
    {
      "elevation": 368.8,
      "mindate": "1961-01-01",
      "maxdate": "1963-09-30",
      "latitude": 34.11667,
      "name": "LA VERNE HTS FC 560, CA US",
      "datacoverage": 1,
      "id": "GHCND:USC00041777",
      "elevationUnit": "METERS",
      "longitude": -117.75
    },
    {
      "elevation": 366.1,
      "mindate": "1893-01-01",
      "maxdate": "1980-12-31",
      "latitude": 34.1,
      "name": "CLAREMONT POMONA COL, CA US",
      "datacoverage": 0.9735,
      "id": "GHCND:USC00041779",
      "elevationUnit": "METERS",
      "longitude": -117.71667
    },
    {
      "elevation": 1122,
      "mindate": "1955-01-01",
      "maxdate": "1978-12-31",
      "latitude": 34.3,
      "name": "COLBYS FC 53D, CA US",
      "datacoverage": 0.9993,
      "id": "GHCND:USC00041896",
      "elevationUnit": "METERS",
      "longitude": -118.11667
    },
    {
      "elevation": 182.9,
      "mindate": "1906-01-01",
      "maxdate": "1949-05-31",
      "latitude": 34.06667,
      "name": "COVINA, CA US",
      "datacoverage": 0.4759,
      "id": "GHCND:USC00042088",
      "elevationUnit": "METERS",
      "longitude": -117.86667
    },
    {
      "elevation": 185,
      "mindate": "1929-10-01",
      "maxdate": "2025-07-31",
      "latitude": 34.0918,
      "name": "COVINA CITY YARD FC387B, CA US",
      "datacoverage": 1,
      "id": "GHCND:USC00042090",
      "elevationUnit": "METERS",
      "longitude": -117.88012
    },
    {
      "elevation": 1629.2,
      "mindate": "1959-11-01",
      "maxdate": "2014-09-30",
      "latitude": 34.3175,
      "name": "CRYSTAL LAKE FC238C, CA US",
      "datacoverage": 1,
      "id": "GHCND:USC00042198",
      "elevationUnit": "METERS",
      "longitude": -117.8419
    },
    {
      "elevation": 1759.9,
      "mindate": "1955-01-01",
      "maxdate": "1959-10-31",
      "latitude": 34.33333,
      "name": "CRYSTAL LAKE EAST PINE FLAT, CA US",
      "datacoverage": 0.983,
      "id": "GHCND:USC00042199",
      "elevationUnit": "METERS",
      "longitude": -117.83333
    },
    {
      "elevation": 28,
      "mindate": "1935-01-01",
      "maxdate": "2025-11-02",
      "latitude": 34.005,
      "name": "CULVER CITY, CA US",
      "datacoverage": 1,
      "id": "GHCND:USC00042214",
      "elevationUnit": "METERS",
      "longitude": -118.4139
    },
    {
      "elevation": 268.2,
      "mindate": "1948-07-01",
      "maxdate": "1951-09-30",
      "latitude": 34,
      "name": "DIAMOND BAR, CA US",
      "datacoverage": 0.9744,
      "id": "GHCND:USC00042432",
      "elevationUnit": "METERS",
      "longitude": -117.8
    },
    {
      "elevation": 33.5,
      "mindate": "1906-03-01",
      "maxdate": "2012-09-30",
      "latitude": 33.9297,
      "name": "DOWNEY FIRE STATION FC107C, CA US",
      "datacoverage": 1,
      "id": "GHCND:USC00042494",
      "elevationUnit": "METERS",
      "longitude": -118.1455
    },
    {
      "elevation": 443.5,
      "mindate": "1921-11-01",
      "maxdate": "1990-01-31",
      "latitude": 34.48333,
      "name": "DRY CANYON RESERVOIR, CA US",
      "datacoverage": 0.9157,
      "id": "GHCND:USC00042516",
      "elevationUnit": "METERS",
      "longitude": -118.53333
    },
    {
      "elevation": 1759.9,
      "mindate": "1931-01-01",
      "maxdate": "1954-12-31",
      "latitude": 34.33333,
      "name": "CRYSTAL LAKE EAST PINE FLAT, CA US",
      "datacoverage": 0.7074,
      "id": "GHCND:USC00042643",
      "elevationUnit": "METERS",
      "longitude": -117.83333
    },
    {
      "elevation": 67.1,
      "mindate": "1949-01-01",
      "maxdate": "1950-06-30",
      "latitude": 33.96667,
      "name": "EAST WHITTIER, CA US",
      "datacoverage": 1,
      "id": "GHCND:USC00042655",
      "elevationUnit": "METERS",
      "longitude": -118.03333
    },
    {
      "elevation": 1003.1,
      "mindate": "1949-01-01",
      "maxdate": "1954-12-31",
      "latitude": 34.66667,
      "name": "PINE CANYON PS FC321, CA US",
      "datacoverage": 1,
      "id": "GHCND:USC00042734",
      "elevationUnit": "METERS",
      "longitude": -118.43333
    },
    {
      "elevation": 634,
      "mindate": "1955-01-01",
      "maxdate": "1972-10-31",
      "latitude": 34.6,
      "name": "ELIZABETH LAKE CN FC, CA US",
      "datacoverage": 0.9999,
      "id": "GHCND:USC00042735",
      "elevationUnit": "METERS",
      "longitude": -118.56667
    },
    {
      "elevation": 139.9,
      "mindate": "1948-07-01",
      "maxdate": "1951-09-30",
      "latitude": 33.8,
      "name": "EL MODENA, CA US",
      "datacoverage": 1,
      "id": "GHCND:USC00042775",
      "elevationUnit": "METERS",
      "longitude": -117.78333
    },
    {
      "elevation": 932.7,
      "mindate": "1909-01-01",
      "maxdate": "2025-07-31",
      "latitude": 34.705,
      "name": "FAIRMONT, CA US",
      "datacoverage": 1,
      "id": "GHCND:USC00042941",
      "elevationUnit": "METERS",
      "longitude": -118.4297
    },
    {
      "elevation": 134.1,
      "mindate": "1959-06-01",
      "maxdate": "1977-06-30",
      "latitude": 34.4,
      "name": "FILLMORE 1 WNW, CA US",
      "datacoverage": 0.9817,
      "id": "GHCND:USC00043050",
      "elevationUnit": "METERS",
      "longitude": -118.93333
    },
    {
      "elevation": 98.1,
      "mindate": "1948-07-01",
      "maxdate": "1965-06-30",
      "latitude": 33.9,
      "name": "FULLERTON ARROUES RA, CA US",
      "datacoverage": 0.9706,
      "id": "GHCND:USC00043279",
      "elevationUnit": "METERS",
      "longitude": -117.91667
    },
    {
      "elevation": 121.9,
      "mindate": "1948-07-01",
      "maxdate": "1958-12-31",
      "latitude": 33.91667,
      "name": "FULLERTON CREEK 5, CA US",
      "datacoverage": 0.9918,
      "id": "GHCND:USC00043282",
      "elevationUnit": "METERS",
      "longitude": -117.86667
    },
    {
      "elevation": 103.6,
      "mindate": "1948-01-01",
      "maxdate": "2013-03-31",
      "latitude": 33.8963,
      "name": "FULLERTON DAM, CA US",
      "datacoverage": 0.9992,
      "id": "GHCND:USC00043285",
      "elevationUnit": "METERS",
      "longitude": -117.888
    },
    {
      "elevation": 100.9,
      "mindate": "1933-01-01",
      "maxdate": "1976-12-31",
      "latitude": 33.88333,
      "name": "FULLERTON HILLCREST, CA US",
      "datacoverage": 0.8953,
      "id": "GHCND:USC00043288",
      "elevationUnit": "METERS",
      "longitude": -117.91667
    },
    {
      "elevation": 340.5,
      "mindate": "2000-01-01",
      "maxdate": "2016-06-30",
      "latitude": 34.0869,
      "name": "GETTY CENTER, CA US",
      "datacoverage": 1,
      "id": "GHCND:USC00043392",
      "elevationUnit": "METERS",
      "longitude": -118.4794
    },
    {
      "elevation": 267.9,
      "mindate": "1927-10-01",
      "maxdate": "1952-08-31",
      "latitude": 34.16667,
      "name": "GIRARD BRANT RANCH, CA US",
      "datacoverage": 1,
      "id": "GHCND:USC00043430",
      "elevationUnit": "METERS",
      "longitude": -118.6
    },
    {
      "elevation": 161.8,
      "mindate": "1929-01-01",
      "maxdate": "1971-08-31",
      "latitude": 34.15,
      "name": "GLENDALE STAPENHORST, CA US",
      "datacoverage": 0.6875,
      "id": "GHCND:USC00043450",
      "elevationUnit": "METERS",
      "longitude": -118.26667
    },
    {
      "elevation": 225.6,
      "mindate": "1917-01-01",
      "maxdate": "1918-12-31",
      "latitude": 34.15,
      "name": "GLENDORA, CA US",
      "datacoverage": 0.9173,
      "id": "GHCND:USC00043451",
      "elevationUnit": "METERS",
      "longitude": -117.833333
    },
    {
      "elevation": 284.4,
      "mindate": "1895-01-01",
      "maxdate": "2011-02-28",
      "latitude": 34.1472,
      "name": "GLENDORA FC 287B, CA US",
      "datacoverage": 1,
      "id": "GHCND:USC00043452",
      "elevationUnit": "METERS",
      "longitude": -117.8472
    },
    {
      "elevation": 747.1,
      "mindate": "1949-01-01",
      "maxdate": "1970-06-30",
      "latitude": 34.26667,
      "name": "HAINES CAN LWR FC 36, CA US",
      "datacoverage": 0.9964,
      "id": "GHCND:USC00043703",
      "elevationUnit": "METERS",
      "longitude": -118.26667
    },
    {
      "elevation": 1049.1,
      "mindate": "1949-01-01",
      "maxdate": "1979-01-31",
      "latitude": 34.26667,
      "name": "HAINES CNYN UPR FC367, CA US",
      "datacoverage": 0.9917,
      "id": "GHCND:USC00043704",
      "elevationUnit": "METERS",
      "longitude": -118.25
    },
    {
      "elevation": 331.3,
      "mindate": "1948-07-01",
      "maxdate": "1960-06-30",
      "latitude": 34.2608,
      "name": "HANSEN DAM, CA US",
      "datacoverage": 1,
      "id": "GHCND:USC00043751",
      "elevationUnit": "METERS",
      "longitude": -118.3863
    },
    {
      "elevation": 808,
      "mindate": "1949-01-01",
      "maxdate": "1978-06-30",
      "latitude": 34.21667,
      "name": "HOEGEES FC 60 A, CA US",
      "datacoverage": 0.9889,
      "id": "GHCND:USC00044017",
      "elevationUnit": "METERS",
      "longitude": -118.03333
    },
    {
      "elevation": 164.6,
      "mindate": "2003-08-01",
      "maxdate": "2025-10-14",
      "latitude": 33.72,
      "name": "IRVINE RANCH, CA US",
      "datacoverage": 1,
      "id": "GHCND:USC00044303",
      "elevationUnit": "METERS",
      "longitude": -117.723
    },
    {
      "elevation": 214,
      "mindate": "1948-07-01",
      "maxdate": "1955-09-30",
      "latitude": 33.95,
      "name": "LA BREA CANYON HUNT, CA US",
      "datacoverage": 1,
      "id": "GHCND:USC00044620",
      "elevationUnit": "METERS",
      "longitude": -117.83333
    },
    {
      "elevation": 470.9,
      "mindate": "1918-01-01",
      "maxdate": "2011-02-28",
      "latitude": 34.2222,
      "name": "LA CRESCENTA FC251C, CA US",
      "datacoverage": 1,
      "id": "GHCND:USC00044628",
      "elevationUnit": "METERS",
      "longitude": -118.2377
    },